,idt,name,category,description,latitude,longitude,year_founded,employees
0,52cdef7c4bab8bd675297d8c,Zoho,software,Online Business Apps Suite,37.692934,-121.904945,2005,1600.0
1,52cdef7c4bab8bd675297d8d,Digg,news,user driven social content website,37.764726,-122.394523,2004,60.0
2,52cdef7c4bab8bd675297d8e,Facebook,social,Social network,37.41605,-122.151801,2004,5299.0
3,52cdef7c4bab8bd675297d8e,Facebook,social,Social network,53.344104,-6.267494,2004,5299.0
4,52cdef7c4bab8bd675297d8e,Facebook,social,Social network,40.7557162,-73.9792469,2004,5299.0
6,52cdef7c4bab8bd675297d94,Twitter,social,Real time communication platform,37.7768052,-122.4169244,2006,1300.0
7,52cdef7c4bab8bd675297d96,Gizmoz,web,Photo animation,37.48413,-122.169472,2003,
8,52cdef7c4bab8bd675297d98,Slacker,music,Music Personalization Suite,33.022176,-117.081406,2006,
9,52cdef7c4bab8bd675297da0,Babelgum,games_video,,53.344104,-6.267494,2007,
10,52cdef7c4bab8bd675297da4,Powerset,search,,37.778613,-122.395289,2006,60.0
11,52cdef7c4bab8bd675297da7,AddThis,advertising,Content Engagement,38.926172,-77.245195,2004,120.0
12,52cdef7c4bab8bd675297da7,AddThis,advertising,Content Engagement,40.724604,-73.996876,2004,120.0
13,52cdef7c4bab8bd675297da7,AddThis,advertising,Content Engagement,34.0263021,-118.380954,2004,120.0
16,52cdef7c4bab8bd675297da7,AddThis,advertising,Content Engagement,42.557958,-83.167884,2004,120.0
17,52cdef7c4bab8bd675297da8,OpenX,advertising,OpenX,34.1494713,-118.1327468,2008,305.0
22,52cdef7c4bab8bd675297dac,Veoh,games_video,Internet TV service,32.902266,-117.20834,2004,
23,52cdef7c4bab8bd675297dae,Thoof,web,,30.268735,-97.745209,2006,
24,52cdef7c4bab8bd675297db5,LifeLock,security,Identity theft protection,33.429859,-111.938739,2005,644.0
25,52cdef7c4bab8bd675297db6,Wesabe,web,,37.793148,-122.402567,2005,
26,52cdef7c4bab8bd675297db9,Prosper,finance,p2p lending marketplace,37.78976,-122.402524,2006,
27,52cdef7c4bab8bd675297dbb,Jajah,mobile,IP Communications Platform,37.4233896,-122.0899512,2005,110.0
28,52cdef7c4bab8bd675297dbf,blogTV,games_video,,31.046051,34.851612,2006,
29,52cdef7c4bab8bd675297dc0,Livestream,games_video,Live streaming platform and website,40.726155,-73.995625,2007,120.0
30,52cdef7c4bab8bd675297dc1,Ustream,games_video,Live Social Video Community,37.392936,-122.07948,2007,250.0
33,52cdef7c4bab8bd675297dc9,Jobster,search,job-focused vertical search engine,47.617682,-122.357242,2004,
34,52cdef7c4bab8bd675297dcb,Revision3,games_video,Web television network,37.757758,-122.388243,2005,
35,52cdef7c4bab8bd675297dd0,Wize,ecommerce,eCommerce Product Reviews,37.559287,-122.302262,2006,
36,52cdef7c4bab8bd675297dd3,iSkoot,mobile,Mobile VOIP service,42.375392,-71.118487,2005,
37,52cdef7c4bab8bd675297dd3,iSkoot,mobile,Mobile VOIP service,37.780134,-122.396744,2005,
38,52cdef7c4bab8bd675297dd7,SellABand,games_video,Fund raising for bands,51.808933,6.553452,2006,
39,52cdef7c4bab8bd675297dd8,Funny Or Die,games_video,comedy video website,37.421621,-122.137444,2007,
41,52cdef7c4bab8bd675297ddf,Zlio,ecommerce,,48.862825,2.381836,2005,
42,52cdef7c4bab8bd675297de0,Yelp,search,Local search and review site,37.786183,-122.402195,2004,800.0
43,52cdef7c4bab8bd675297de4,Yapta,travel,Flight Price Tracking Service,47.599925,-122.334264,2007,
49,52cdef7c4bab8bd675297def,KickApps,enterprise,Social media applications and widgets,40.7516611,-73.9843328,2004,72.0
50,52cdef7c4bab8bd675297def,KickApps,enterprise,Social media applications and widgets,33.991101,-118.468707,2004,72.0
51,52cdef7c4bab8bd675297def,KickApps,enterprise,Social media applications and widgets,37.7891086,-122.4016144,2004,72.0
52,52cdef7c4bab8bd675297def,KickApps,enterprise,Social media applications and widgets,51.5094731,-0.1356235,2004,72.0
53,52cdef7c4bab8bd675297df0,RockYou,games_video,Social Gaming Company,37.484619,-122.206893,2005,106.0
54,52cdef7c4bab8bd675297df6,Slide,public_relations,Develops self-expression widgets,37.781427,-122.392144,2005,64.0
55,52cdef7c4bab8bd675297dfb,WeFi,mobile,Wifi Network Dicovery Tool,37.09024,-95.712891,2006,
56,52cdef7c4bab8bd675297dfe,FeedBurner,web,,41.889474,-87.628912,2004,
57,52cdef7c4bab8bd675297dff,TheFind,ecommerce,,37.391502,-122.073463,2006,
58,52cdef7c4bab8bd675297e00,TVtrip,web,Video guide for hotels,48.856667,2.350987,2007,
59,52cdef7c4bab8bd675297e02,Dogster,web,,37.762681,-122.400909,2004,
60,52cdef7c4bab8bd675297e04,Sway,advertising,,43.090756,-89.522805,2004,
61,52cdef7c4bab8bd675297e08,Loomia,web,Recomendation engine,37.796396,-122.404869,2004,
62,52cdef7c4bab8bd675297e09,Meebo,web,Organizes the web around people.	,37.393679,-122.079017,2005,200.0
67,52cdef7c4bab8bd675297e0a,Eventbrite,web,Online event management & ticketing,37.779507,-122.39071,2006,200.0
68,52cdef7c4bab8bd675297e0c,LinkedIn,social,Professional Social Networking,37.423258,-122.073635,2003,4800.0
69,52cdef7c4bab8bd675297e0d,FlickIM,mobile,chat programs,37.870744,-122.269259,2006,
70,52cdef7c4bab8bd675297e10,Box,network_hosting,Cloud Content Management,37.425801,-122.143701,2005,950.0
71,52cdef7c4bab8bd675297e14,Carbonite,network_hosting,,42.350571,-71.076869,2006,68.0
72,52cdef7c4bab8bd675297e15,Conduit,advertising,Platform for branded apps,37.561877,-122.325248,2005,215.0
73,52cdef7c4bab8bd675297e17,Kaboodle,ecommerce,,37.382162,-122.036301,2005,
74,52cdef7c4bab8bd675297e18,GigaOM,news,,37.775196,-122.419204,2006,75.0
75,52cdef7c4bab8bd675297e18,GigaOM,news,,40.7143528,-74.0059731,2006,75.0
76,52cdef7c4bab8bd675297e19,Redfin,real_estate,Online Real Estate ,47.603122,-122.333253,2004,100.0
77,52cdef7c4bab8bd675297e1a,Wink,search,,37.40047,-122.072981,2004,
78,52cdef7c4bab8bd675297e1c,coComment,web,,46.20381,6.139959,2006,
79,52cdef7c4bab8bd675297e20,Zvents,web,Local events and entertainment guides,37.553121,-122.301534,2005,55.0
80,52cdef7c4bab8bd675297e23,Eventful,web,Powers the online event ecosystem ,32.872081,-117.206292,2004,60.0
82,52cdef7c4bab8bd675297e25,Oodle,social,aggregator of classifieds ,37.563585,-122.324621,2004,
83,52cdef7c4bab8bd675297e26,oDesk,web,Online workplace,37.479952,-122.178557,2005,120.0
84,52cdef7c4bab8bd675297e27,Simply Hired,search,Job Search Engine and Recruiting Network,37.4219165,-122.0780632,2004,100.0
85,52cdef7c4bab8bd675297e31,Flixster,web,Movie social networking,37.766909,-122.406676,2006,75.0
86,52cdef7c4bab8bd675297e3c,Bazaarvoice,software,Word of mouth marketing,30.407545,-97.717667,2005,600.0
87,52cdef7c4bab8bd675297e3d,IceRocket,search,,32.781078,-96.797111,2004,
88,52cdef7c4bab8bd675297e3e,spigit,software,Purpose-built social networking platform,37.6637279,-121.8731805,2006,120.0
89,52cdef7c4bab8bd675297e3e,spigit,software,Purpose-built social networking platform,38.9590083,-77.3592746,2006,120.0
90,52cdef7c4bab8bd675297e3e,spigit,software,Purpose-built social networking platform,51.5170385,-0.1394759,2006,120.0
91,52cdef7c4bab8bd675297e44,hi5,games_video,,37.788668,-122.400558,2003,100.0
92,52cdef7c4bab8bd675297e46,Tagged,social,,37.7753,-122.4186,2004,162.0
93,52cdef7c4bab8bd675297e4a,Indeed,web,Job Search Portal,41.038155,-73.558082,2004,
95,52cdef7c4bab8bd675297e53,Wallhogs,public_relations,,40.30305,-79.462703,2006,52.0
96,52cdef7c4bab8bd675297e55,Curse,games_video,Online games media company,37.787092,-122.399972,2006,58.0
98,52cdef7c4bab8bd675297e58,eBuddy,messaging,Web and mobile messaging,52.3640933,4.8919457,2003,90.0
99,52cdef7c4bab8bd675297e58,eBuddy,messaging,Web and mobile messaging,37.787683,-122.410943,2003,90.0
100,52cdef7c4bab8bd675297e58,eBuddy,messaging,Web and mobile messaging,51.500152,-0.126236,2003,90.0
101,52cdef7c4bab8bd675297e5b,PeerMe,games_video,,37.419819,-122.090188,2004,
102,52cdef7c4bab8bd675297e63,Phonezoo,web,,37.386376,-121.991471,2006,
103,52cdef7c4bab8bd675297e6b,PodTech,games_video,,37.408256,-122.154176,2005,
104,52cdef7c4bab8bd675297e6c,NowPublic,web,crowdsourcing news network,49.283376,-123.103986,2005,
105,52cdef7c4bab8bd675297e6e,Crackle,games_video,,34.017506,-118.401579,2004,
112,52cdef7c4bab8bd675297e76,Lotame,advertising,Data Management Platform,39.205649,-76.77514,2006,75.0
113,52cdef7c4bab8bd675297e76,Lotame,advertising,Data Management Platform,40.753631,-73.995487,2006,75.0
114,52cdef7c4bab8bd675297e76,Lotame,advertising,Data Management Platform,42.359146,-71.056604,2006,75.0
118,52cdef7c4bab8bd675297e78,Rebtel,mobile,Talk More With Your Loved Ones,59.3167843,18.1582777,2006,75.0
120,52cdef7c4bab8bd675297e7c,Retrevo,web,Consumer Electronics Shopping Site,37.368594,-122.034021,2006,
121,52cdef7c4bab8bd675297e81,Brightcove,enterprise,Online video platform,42.362993,-71.086596,2004,220.0
128,52cdef7c4bab8bd675297e82,Hightail,network_hosting,securely share files & folders anywhere,37.288974,-121.935688,2004,200.0
129,52cdef7c4bab8bd675297e83,Nimbuzz,mobile,"Mobile messaging, VoIP and Social",51.9122575,4.5464658,2006,140.0
131,52cdef7c4bab8bd675297e84,Tangler,web,,37.386665,-122.084171,2006,
132,52cdef7c4bab8bd675297e86,obopay,mobile,Mobile payment solutions,37.524729,-122.258037,2005,
133,52cdef7c4bab8bd675297e8a,TalkPlus,web,,37.553743,-122.300246,2004,
135,52cdef7c4bab8bd675297e90,PermissionTV,games_video,,42.417268,-71.258466,2005,
136,52cdef7c4bab8bd675297e92,Rocketboom,news,,40.797364,-73.97785,2007,
137,52cdef7c4bab8bd675297e93,WallStrip,games_video,,37.09024,-95.712891,2006,
138,52cdef7c4bab8bd675297e9b,IMVU,web,Online 3D Community,37.3927975,-122.0727749,2004,150.0
139,52cdef7c4bab8bd675297e9d,madKast,web,,40.010492,-105.276843,2007,
140,52cdef7c4bab8bd675297e9e,Nirvanix,enterprise,Enterprise Cloud Storage Company,32.877656,-117.210595,2007,
141,52cdef7c4bab8bd675297ea4,Webkinz,web,,43.76969,-79.549577,2005,8657.0
142,52cdef7c4bab8bd675297eac,Viagogo,ecommerce,Uppriced online event ticket marketplace,51.500152,-0.126236,2005,
143,52cdef7c4bab8bd675297ead,KnockaTV,games_video,,31.046051,34.851612,2007,
144,52cdef7c4bab8bd675297eb1,GreatCall,mobile,Mobile Virtual Network Operator,32.964294,-117.265191,2005,
145,52cdef7c4bab8bd675297eb7,Revver,games_video,User Generated Video Site,34.052187,-118.243425,2004,
146,52cdef7c4bab8bd675297eb9,Metacafe,games_video,Online Video Entertainment,37.437328,-122.159928,2003,
147,52cdef7c4bab8bd675297ebb,ChaCha,advertising,Mobile and Online Answers Service,39.998641,-86.130347,2005,70.0
149,52cdef7c4bab8bd675297ebf,Kontera,advertising,In-Text Advertising,37.767575,-122.411157,2003,
150,52cdef7c4bab8bd675297ec2,Dropbox,software,"Always have your stuff, wherever you are",37.7909427,-122.4084994,2007,350.0
153,52cdef7c4bab8bd675297ecc,TokBox,messaging,Web video communications platform,37.779507,-122.39071,2007,55.0
161,52cdef7c4bab8bd675297ed3,Weebly,web,Easiest Way to Create a Website,37.795555,-122.400729,2006,70.0
162,52cdef7c4bab8bd675297ed4,Yola,web,Free Websites,37.7911148,-122.3954751,2007,70.0
164,52cdef7c4bab8bd675297ed6,BitTorrent,web,Software and Internet Protocols,37.790998,-122.394668,2004,80.0
165,52cdef7c4bab8bd675297eda,EventVue,public_relations,Social Networking for Conferences,40.010492,-105.276843,2007,
166,52cdef7c4bab8bd675297ee1,Cloudant,enterprise,NoSQL database managed service,42.35892,-71.05781,2008,70.0
167,52cdef7c4bab8bd675297ee4,GoFish,games_video,entertainment and media company,37.09024,-95.712891,2003,
168,52cdef7c4bab8bd675297ee5,KIT digital,enterprise,video distribution solutions,40.751816,-73.971655,2008,200.0
172,52cdef7c4bab8bd675297ee5,KIT digital,enterprise,video distribution solutions,59.3369746,18.0580765,2008,200.0
176,52cdef7c4bab8bd675297ee5,KIT digital,enterprise,video distribution solutions,43.6587599,-79.5983626,2008,200.0
178,52cdef7c4bab8bd675297ee6,Kiva,finance,P2P Microfinance lending,37.762125,-122.4147,2005,
180,52cdef7c4bab8bd675297eeb,Zopa,finance,P2P Lending,51.517904,-0.139947,2005,
181,52cdef7c4bab8bd675297ef1,BlueLithium,advertising,,37.32052,-121.948399,2004,135.0
182,52cdef7c4bab8bd675297ef5,MySpace,network_hosting,Social Network,34.076061,-118.372953,2003,800.0
183,52cdef7c4bab8bd675297f01,Vlingo,mobile,Voice enabled Virtual Assistant,42.372912,-71.118999,2006,
184,52cdef7c4bab8bd675297f03,DotBlu,web,,37.09024,-95.712891,2007,
186,52cdef7c4bab8bd675297f04,Covestor,finance,Investment Management Marketplace,51.5194201,-0.1433689,2005,
187,52cdef7c4bab8bd675297f05,Mevio,games_video,Independent Video Entertainment Network,37.782263,-122.392142,2004,
188,52cdef7c4bab8bd675297f07,Shock Treatment Management,web,,47.610332,-122.339859,2004,
189,52cdef7c4bab8bd675297f08,NewsGator,enterprise,Social Business Software,39.755092,-104.988123,2004,90.0
190,52cdef7c4bab8bd675297f09,Pluck,web,White-label Social Network,30.268735,-97.745209,2003,
191,52cdef7c4bab8bd675297f0f,sezmi,games_video,Entertianment services company,37.524422,-122.265869,2007,
192,52cdef7c4bab8bd675297f0f,sezmi,games_video,Entertianment services company,34.017373,-118.453218,2007,
193,52cdef7c4bab8bd675297f0f,sezmi,games_video,Entertianment services company,26.207024,-80.157296,2007,
195,52cdef7c4bab8bd675297f19,ReachLocal,advertising,,41.53155,-72.188584,2004,1700.0
196,52cdef7c4bab8bd675297f19,ReachLocal,advertising,,43.7192415,-79.338246,2004,1700.0
200,52cdef7c4bab8bd675297f1a,Greystripe,advertising,Mobile advertising platform,37.710677,-122.39323,2005,90.0
201,52cdef7c4bab8bd675297f1b,Trulia,search,residential real estate search engine,37.766909,-122.406676,2004,500.0
202,52cdef7c4bab8bd675297f24,TubeMogul,advertising,Video Ad Buying Platform,37.836957,-122.286493,2006,230.0
203,52cdef7c4bab8bd675297f2e,Multiply,ecommerce,,26.400499,-80.097742,2003,
205,52cdef7c4bab8bd675297f35,LimeLife,news,Cross-platform digital media for women,37.48413,-122.169472,2004,
206,52cdef7c4bab8bd675297f3c,Adknowledge,advertising,,39.044694,-94.597896,2004,300.0
207,52cdef7c4bab8bd675297f3c,Adknowledge,advertising,,40.748901,-73.992463,2004,300.0
208,52cdef7c4bab8bd675297f3c,Adknowledge,advertising,,37.78866,-122.401406,2004,300.0
209,52cdef7c4bab8bd675297f3c,Adknowledge,advertising,,26.580095,-81.879069,2004,300.0
210,52cdef7c4bab8bd675297f3c,Adknowledge,advertising,,43.6474554,-79.3953743,2004,300.0
211,52cdef7c4bab8bd675297f3c,Adknowledge,advertising,,51.5114403,-0.1229212,2004,300.0
212,52cdef7c4bab8bd675297f3c,Adknowledge,advertising,,48.1635092,11.5582609,2004,300.0
213,52cdef7c4bab8bd675297f3c,Adknowledge,advertising,,48.8506065,2.3797825,2004,300.0
214,52cdef7c4bab8bd675297f3c,Adknowledge,advertising,,31.222622,121.4770384,2004,300.0
215,52cdef7c4bab8bd675297f43,Yap,messaging,cloud-based speech recognition,35.22806,-80.856178,2006,
216,52cdef7c4bab8bd675297f45,Tizra,enterprise,,41.841713,-71.399771,2006,
217,52cdef7c4bab8bd675297f48,Minglebox,web,,12.971606,77.594376,2006,
218,52cdef7c4bab8bd675297f4a,TestFreaks,ecommerce,Product Review Experts,59.3339908,18.0571198,2006,
219,52cdef7c4bab8bd675297f4c,Quattro Wireless,advertising,Mobile ad network,42.3729,-71.248472,2006,
221,52cdef7c4bab8bd675297f50,BBE,advertising,Digital media company,40.7445343,-73.9874008,2004,
222,52cdef7c4bab8bd675297f53,Thumbplay,music,"Music, Videos, Games for Mobile Devices",40.725435,-73.997395,2004,70.0
223,52cdef7c4bab8bd675297f5d,Wonga,web,Online Provider of Small Cash Advances,51.5192042,-0.1626103,2007,
224,52cdef7c4bab8bd675297f60,SnapTell,software,Image recognition based mobile marketing,37.433414,-122.128772,2006,
225,52cdef7c4bab8bd675297f69,Spiceworks,hardware,,30.386601,-97.753739,2006,
226,52cdef7c4bab8bd675297f6a,MyHeritage,social,Family history network,32.029748,34.856173,2005,
227,52cdef7c4bab8bd675297f70,OnForce,enterprise,#1 Source for On-site Tech Talent,42.47218,-71.262508,2003,
228,52cdef7c4bab8bd675297f72,Ooyala,analytics,"Video streaming, analytics, monetization",37.386665,-122.084171,2007,300.0
233,52cdef7c4bab8bd675297f81,hulu,games_video,Online Video Provider,34.031276,-118.456806,2007,153.0
234,52cdef7c4bab8bd675297f83,imeem,music,Social music service,37.779624,-122.391236,2003,55.0
235,52cdef7c4bab8bd675297f84,AdMob,advertising,App developer monetization/promotion.,37.563585,-122.324621,2006,
237,52cdef7c4bab8bd675297f9c,TripIt,travel,Organize Your Travel,37.764169,-122.402021,2006,63.0
238,52cdef7c4bab8bd675297f9d,PubMatic,advertising,Sell-Side Platform,37.446668,-122.156579,2006,380.0
242,52cdef7c4bab8bd675297fb7,Balihoo,advertising,Local Marketing Automation,43.61295,-116.205637,2004,
243,52cdef7c4bab8bd675297fbb,Smartsheet,enterprise,Online project management,47.617842,-122.20052,2005,
244,52cdef7c4bab8bd675297fbf,Avvo,legal,,47.6104101,-122.3396627,2007,
245,52cdef7c4bab8bd675297fc0,Tumri,advertising,Interactive Ad Platform Developer,37.09024,-95.712891,2004,
246,52cdef7c4bab8bd675297fc4,ChessPark,games_video,,43.67084,-83.913153,2007,
247,52cdef7c4bab8bd675297fc5,MuseStorm,web,Widget creator / rich media ad platform,37.368594,-122.034021,2005,
248,52cdef7c4bab8bd675297fc7,Clickable,advertising,Solution for online advertisers.,40.7413559,-73.9912208,2006,160.0
250,52cdef7c4bab8bd675297fc8,Eons,network_hosting,,42.375219,-71.056101,2005,
251,52cdef7c4bab8bd675297fda,mig33,games_video,Social Entertainment Platform Company,37.580304,-122.343679,2005,100.0
252,52cdef7c4bab8bd675297fdb,Animoto,music,Animated slide-show generator,40.72948,-74.000195,2006,60.0
255,52cdef7c4bab8bd675298000,Sermo,health,,42.364367,-71.078978,2006,
256,52cdef7c4bab8bd67529800a,RingCentral,messaging,phone system integration ,37.560155,-122.285588,2003,
257,52cdef7c4bab8bd67529800c,Zillow,real_estate,,47.6011125,-122.3293984,2005,600.0
258,52cdef7c4bab8bd67529800e,MatchMine,web,,42.304545,-71.220187,2007,
259,52cdef7c4bab8bd675298012,Mobivox,mobile,VoIP Provider,45.500277,-73.560084,2007,
260,52cdef7c4bab8bd675298013,3Jam,mobile,,37.765125,-122.4044034,2005,
261,52cdef7c4bab8bd675298014,PlaySpan,games_video,P2P in-game commerce,37.396312,-121.961396,2006,
263,52cdef7c4bab8bd675298015,DocuSign,software,web-based electronic signature,47.603015,-122.335668,2003,
264,52cdef7c4bab8bd67529801e,Zimbra,enterprise,,37.557637,-122.285714,2003,200.0
265,52cdef7c4bab8bd675298021,FriendFeed,web,Social network aggregator,37.39248,-122.072612,2007,
266,52cdef7c4bab8bd675298022,Wikinvest,web,,37.775196,-122.419204,2006,
267,52cdef7c4bab8bd675298028,Gazelle,ecommerce,Consumer electronics trade-in site,42.354022,-71.140762,2006,
268,52cdef7c4bab8bd67529802b,Fon,mobile,Your global WiFi network,40.530724,-3.632687,2006,100.0
269,52cdef7c4bab8bd67529803c,RayV,games_video,TV over IP Network,40.781159,-73.978332,2005,
270,52cdef7c4bab8bd67529803d,Uptake,web,,37.443058,-122.161674,2008,
271,52cdef7c4bab8bd67529803e,FanIQ,sports,Sports Fan Crowdsourced News,37.09024,-95.712891,2006,
272,52cdef7c4bab8bd67529803f,Polyvore,web,Social Shopping Platform,37.386175,-122.083487,2007,73.0
273,52cdef7c4bab8bd675298042,23andMe,biotech,human genome indexing/application,37.09024,-95.712891,2006,80.0
274,52cdef7c4bab8bd675298043,YuMe,advertising,Video Advertising,37.476479,-122.221717,2004,
275,52cdef7c4bab8bd675298047,Treemo Labs,mobile,,47.620716,-122.347533,2005,
276,52cdef7c4bab8bd67529804a,Blurb,ecommerce,Book development software,37.792968,-122.40414,2005,150.0
277,52cdef7c4bab8bd67529804c,The Climate Corporation,cleantech,Tackling climate change through tech.,37.782809,-122.394354,2006,150.0
278,52cdef7c4bab8bd67529804c,The Climate Corporation,cleantech,Tackling climate change through tech.,47.5984767,-122.3331466,2006,150.0
279,52cdef7c4bab8bd67529804d,Automattic,web,Develops publishing platforms,37.744274,-122.421344,2005,200.0
280,52cdef7c4bab8bd675298051,Tumblr,web,,40.743808,-73.983626,2007,
281,52cdef7c4bab8bd675298057,uTest,software,In-the-wild software testing,42.288291,-71.52679,2007,120.0
283,52cdef7c4bab8bd67529805a,Payoneer,other,Global Payments Solutions,40.621591,-73.960717,2005,200.0
284,52cdef7c4bab8bd67529805b,Songkick,music,Concert Listings Site,51.54202,-0.0558343,2007,
287,52cdef7c4bab8bd67529805f,EchoSign,web,The Web's #1 Electronic Signature Servic,37.445326,-122.160671,2005,100.0
288,52cdef7c4bab8bd675298062,Buzzwire,mobile,,39.755092,-104.988123,2007,
289,52cdef7c4bab8bd67529806d,TrialPay,advertising,Product and service barter marketplace,37.388095,-122.08276,2006,100.0
290,52cdef7c4bab8bd675298073,Firetide,mobile,Wireless Broadband Networks,37.285133,-121.932962,2003,100.0
294,52cdef7c4bab8bd675298077,eXelate,advertising,smart data. smarter decisions.,40.741266,-73.990753,2007,
295,52cdef7c4bab8bd675298077,eXelate,advertising,smart data. smarter decisions.,37.787249,-122.3990501,2007,
296,52cdef7c4bab8bd675298077,eXelate,advertising,smart data. smarter decisions.,41.8831959,-87.6517774,2007,
297,52cdef7c4bab8bd675298077,eXelate,advertising,smart data. smarter decisions.,32.1618634,34.9341664,2007,
298,52cdef7c4bab8bd675298077,eXelate,advertising,smart data. smarter decisions.,48.8743443,2.3226888,2007,
299,52cdef7c4bab8bd675298077,eXelate,advertising,smart data. smarter decisions.,51.5150129,-0.1326786,2007,
300,52cdef7c4bab8bd67529807e,Gydget,web,Marketing Widget Maker,37.791733,-122.398398,2007,
301,52cdef7c4bab8bd675298081,Gigya,enterprise,Connected Consumer Management Suite,37.43938,-122.158804,2006,230.0
302,52cdef7c4bab8bd675298084,Baynote,software,,37.332271,-122.006539,2004,80.0
303,52cdef7c4bab8bd675298085,Songbird,mobile,Effortless Music Discovery,37.787126,-122.39783,2006,
305,52cdef7c4bab8bd67529808a,GridNetworks,network_hosting,,47.602873,-122.336132,2004,
306,52cdef7c4bab8bd675298093,Qloud,games_video,,39.016745,-77.023821,2007,
307,52cdef7c4bab8bd675298095,Vitrue,enterprise,,33.756806,-84.392198,2006,
308,52cdef7c4bab8bd675298095,Vitrue,enterprise,,40.718888,-74.001169,2006,
313,52cdef7c4bab8bd675298097,Pelago,mobile,Consumer web and mobile utility,47.607065,-122.335373,2005,
314,52cdef7c4bab8bd67529809f,Vringo,software,,40.7550005,-73.9717364,2006,
315,52cdef7c4bab8bd6752980a4,mDialog,advertising,TV ad insertion connected devices,43.65455,-79.364013,2005,
317,52cdef7c4bab8bd6752980ab,BrightRoll,advertising,Online Video Advertising Network,37.794643,-122.401144,2006,
321,52cdef7c4bab8bd6752980b6,Zmags,software,Rich-Media Marketing Platform,55.6839208,12.571492,2006,95.0
323,52cdef7c4bab8bd6752980b6,Zmags,software,Rich-Media Marketing Platform,51.5111369,-0.1247662,2006,95.0
324,52cdef7c4bab8bd6752980ba,Turn,advertising,Cloud Marketing Platform,37.512253,-122.201099,2004,
331,52cdef7c4bab8bd6752980bc,TrackVia,software,,39.738499,-105.158645,2006,
332,52cdef7c4bab8bd6752980bd,Loopt,mobile,Social Mapping Service,37.384717,-122.081625,2005,
333,52cdef7c4bab8bd6752980c4,MyBuys,advertising,Cross-Channel Personalization,37.530893,-122.245087,2006,120.0
334,52cdef7c4bab8bd6752980c4,MyBuys,advertising,Cross-Channel Personalization,42.277416,-83.733276,2006,120.0
335,52cdef7c4bab8bd6752980c6,Podaddies,advertising,Video Ad Network,37.7726402,-122.4099154,2006,
336,52cdef7c4bab8bd6752980c8,Yieldex,advertising,online advertising optimization ,37.636288,-122.42689,2007,
339,52cdef7c4bab8bd6752980d1,Springbox,web,Interactive Marketing Services Agency,30.269452,-97.742682,2004,65.0
340,52cdef7c4bab8bd6752980d1,Springbox,web,Interactive Marketing Services Agency,34.0065488,-118.3923578,2004,65.0
343,52cdef7c4bab8bd6752980d6,Vobile,web,,37.399208,-121.97895,2005,120.0
344,52cdef7c4bab8bd6752980d7,Vivox,advertising,Integrated Voice Chat Provider,37.09024,-95.712891,2005,
345,52cdef7c4bab8bd6752980db,Billeo,ecommerce,,37.385216,-121.972128,2006,
346,52cdef7c4bab8bd6752980db,Billeo,ecommerce,,37.4069445,-121.9797628,2006,
347,52cdef7c4bab8bd6752980e4,GeoSentric,mobile,Social Network and LBS product developer,37.09024,-95.712891,2007,
348,52cdef7c4bab8bd6752980e8,RescueTime,web,,47.603577,-122.335333,2007,
350,52cdef7c4bab8bd6752980f1,Blyk,messaging,Mobile Social Networking,52.146853,-1.721287,2006,100.0
354,52cdef7c4bab8bd6752980f9,Zoji,web,,47.620716,-122.347533,2004,
355,52cdef7c4bab8bd6752980fa,Worktopia,enterprise,,40.987453,-73.741649,2004,
358,52cdef7c4bab8bd67529810f,Splunk,software,Machine data analytics,37.78274,-122.390945,2003,500.0
359,52cdef7c4bab8bd675298113,UpNext,mobile, 3D maps for the mobile devices,40.757929,-73.985506,2007,
360,52cdef7c4bab8bd675298118,TrustedID,security,identity protection solutions,37.520592,-122.255907,2005,120.0
361,52cdef7c4bab8bd675298119,Youku,photo_video,Chinese video site,31.2006566,121.4384701,2006,
363,52cdef7c4bab8bd67529811c,TeamPages,web,Team and league websites.,49.2753229,-123.1208785,2006,
368,52cdef7c4bab8bd675298125,SeeToo,enterprise,,40.755861,-73.996272,2007,
369,52cdef7c4bab8bd675298129,Songza,music,Playlists For Everything,40.7473113,-73.9549182,2007,
370,52cdef7c4bab8bd67529812c,CollegeFanz,network_hosting,Social network around college sports,39.935819,-74.909185,2007,
371,52cdef7c4bab8bd67529812e,Yodle,advertising,Online Marketing for Local Businesses,40.742459,-73.9918126,2005,1000.0
372,52cdef7c4bab8bd67529812e,Yodle,advertising,Online Marketing for Local Businesses,30.378658,-97.731249,2005,1000.0
373,52cdef7c4bab8bd67529812e,Yodle,advertising,Online Marketing for Local Businesses,35.139441,-80.916109,2005,1000.0
374,52cdef7c4bab8bd67529812e,Yodle,advertising,Online Marketing for Local Businesses,33.464377,-111.924855,2005,1000.0
375,52cdef7c4bab8bd67529812e,Yodle,advertising,Online Marketing for Local Businesses,34.105226,-84.03398,2005,1000.0
376,52cdef7c4bab8bd675298130,Motionbox,games_video,Video Sharing,40.606061,-73.822331,2006,
377,52cdef7c4bab8bd675298132,Deezer,music,World's first music streaming service,48.8780596,2.3283853,2006,200.0
378,52cdef7c4bab8bd675298134,betNOW,web,Mobile Betting service,51.511599,-0.126389,2005,
379,52cdef7c4bab8bd675298135,eyeOS,enterprise,Leading Cloud Desktop worldwide. ,41.3854855,2.1702872,2005,
380,52cdef7c4bab8bd675298137,Jott,web,speech-to-text services,47.6139472,-122.327807,2006,
381,52cdef7c4bab8bd67529813a,HubSpot,software,inbound marketing platform,42.375392,-71.118487,2006,650.0
382,52cdef7c4bab8bd67529813b,Kewego,games_video,Video sharing and distribution,46.227638,2.213749,2003,65.0
383,52cdef7c4bab8bd67529813f,Vidyo,messaging,high-definition video conferencing ,40.909378,-74.033707,2005,80.0
384,52cdef7c4bab8bd675298142,Intronis,enterprise,Cloud backup services,42.351105,-71.049124,2003,
385,52cdef7c4bab8bd675298146,SocialPicks,web,Collaborative Investing,37.09024,-95.712891,2006,
386,52cdef7c4bab8bd675298147,iMemories,enterprise,Online Video & Photo Sharing,33.639318,-111.883237,2006,
387,52cdef7c4bab8bd67529814d,ClickTale,analytics,Web Analytics,31.046051,34.851612,2006,
388,52cdef7c4bab8bd67529814d,ClickTale,analytics,Web Analytics,32.068424,34.824785,2006,
389,52cdef7c4bab8bd67529814f,Twenga,ecommerce,Shopping search & price comparison sites,48.856667,2.350987,2006,
392,52cdef7c4bab8bd675298150,TradeKing,web,Online Stock and Options Broker,26.119102,-80.1343038,2005,
393,52cdef7c4bab8bd675298151,Viadeo,social,Professional Social Network,48.8747064,2.3304161,2004,400.0
394,52cdef7c4bab8bd675298155,CafeMom,network_hosting,Social network for mothers,37.09024,-95.712891,2006,
395,52cdef7c4bab8bd675298156,Shipwire,enterprise,ecommerce order fulfillment,37.09024,-95.712891,2006,
396,52cdef7c4bab8bd675298156,Shipwire,enterprise,ecommerce order fulfillment,37.4418834,-122.1430195,2006,
397,52cdef7c4bab8bd675298159,GrubHub,hospitality,online and mobile food ordering service,41.907647,-87.649878,2004,250.0
398,52cdef7c4bab8bd67529815f,Gilt Groupe,fashion,Designer Sample Sales Online,40.74727,-73.9800645,2007,
399,52cdef7c4bab8bd675298161,BeliefNet,web,,40.740231,-73.985433,2008,
400,52cdef7c4bab8bd675298164,Bahu,web,Global Student Social Network,48.882434,2.297035,2007,
401,52cdef7c4bab8bd675298166,Hakia,search,meaning-based (semantic) search engine,37.09024,-95.712891,2004,
402,52cdef7c4bab8bd675298167,AppJet,web,,37.775196,-122.419204,2007,
403,52cdef7c4bab8bd675298168,Kosmix,web,Web guide organized by topic,37.3867729,-122.0752224,2005,
404,52cdef7c4bab8bd67529816c,Goodreads,web,Community for book lovers,34.01052,-118.495981,2007,70.0
406,52cdef7c4bab8bd67529816f,Jobvite,social,On-demand job recruiting,37.789034,-122.398503,2003,
407,52cdef7c4bab8bd675298172,ideeli,ecommerce,Online Retail Marketplace,40.755978,-73.990396,2007,
408,52cdef7c4bab8bd675298173,Streamezzo,mobile,media mobile products ,48.872159,2.291225,2004,
409,52cdef7c4bab8bd675298174,Shoeboxed,web,Painless Receipt & Expense Management,35.996157,-78.902115,2007,70.0
410,52cdef7c4bab8bd675298174,Shoeboxed,web,Painless Receipt & Expense Management,35.9939,-78.8986,2007,70.0
412,52cdef7c4bab8bd675298178,Qik,mobile,Live video casting from cell phones,37.486368,-122.230116,2006,60.0
413,52cdef7c4bab8bd67529817d,PlayFirst,games_video,Mobile games,37.790346,-122.40185,2004,
415,52cdef7c4bab8bd67529817e,Libersy,ecommerce,Online Booking made easy,52.373812,4.890951,2006,
416,52cdef7c4bab8bd675298183,KAYAK,search,travel search engine,41.1010914,-73.4168779,2004,101.0
418,52cdef7c4bab8bd675298185,Acquia,enterprise,Enterprise Guide to Drupal,42.524527,-71.137784,2007,400.0
419,52cdef7c4bab8bd67529818a,GridPoint,cleantech,Energy Management,38.888107,-77.091562,2003,
420,52cdef7c4bab8bd67529818d,Etsy,ecommerce,Handmade marketplace,40.694731,-73.983268,2005,300.0
421,52cdef7c4bab8bd67529818f,Kior,cleantech,Biofuels,37.09024,-95.712891,2007,
422,52cdef7c4bab8bd675298191,Causes,nonprofit,Campaigning Platform,37.870258,-122.272513,2007,
423,52cdef7c4bab8bd675298193,Challenge Games,network_hosting,Online social games,30.268236,-97.740651,2006,
424,52cdef7c4bab8bd675298198,Tesla Motors,automotive,Electric Sport Cars,37.496737,-122.245323,2003,500.0
426,52cdef7c4bab8bd67529819d,Bunchball,software,Gamification,37.3208403,-121.9479223,2005,60.0
428,52cdef7c4bab8bd6752981a1,Delve Networks,games_video,,47.600818,-122.334117,2006,
431,52cdef7c4bab8bd6752981ae,LifeOnKey,web,health record platform,37.09024,-95.712891,2003,
432,52cdef7c4bab8bd6752981af,Scrapblog,web,"Online, Multimedia Scrapbook Editor",25.752358,-80.25468,2006,
433,52cdef7c4bab8bd6752981b1,Blekko,search,Search engine,37.09024,-95.712891,2007,
434,52cdef7c4bab8bd6752981b8,Meraki,network_hosting,Cloud-managed network infrastructure,37.392443,-122.072517,2006,
435,52cdef7c4bab8bd6752981ba,SugarCRM,software,CRM software company,37.323739,-122.014147,2004,
436,52cdef7c4bab8bd6752981c3,Jobfox,web,job search and career networking site,38.92719,-77.216969,2004,
437,52cdef7c4bab8bd6752981c7,Outspark,games_video,Video game publishing,37.775196,-122.419204,2007,
438,52cdef7c4bab8bd6752981c8,ARPU,advertising,Performance based ad network,37.09024,-95.712891,2005,
439,52cdef7c4bab8bd6752981cd,Joyent,enterprise,Cloud Computing,37.856743,-122.480153,2004,
440,52cdef7c4bab8bd6752981cf,Woot,web,"""one deal per day"" ecommerce",33.020526,-96.848836,2004,200.0
441,52cdef7c4bab8bd6752981d4,PLYmedia,advertising,,37.400821,-122.131383,2006,
442,52cdef7c4bab8bd6752981d7,fabrik,network_hosting,,37.553743,-122.300246,2005,175.0
443,52cdef7c4bab8bd6752981dc,RazorGator,ecommerce,online ticket reselling,34.047312,-118.445243,2011,
444,52cdef7c4bab8bd6752981dd,yoonew,web,,40.75362,-73.986557,2004,
445,52cdef7c4bab8bd6752981e0,AF83,web,360 web experts,48.862063,2.35022,2006,55.0
447,52cdef7c4bab8bd6752981e1,Zynga,games_video,Network of gaming applications,37.765158,-122.404234,2007,115.0
460,52cdef7c4bab8bd6752981f7,blinkbox music,music,Music,51.7319786,-1.2063327,2007,
462,52cdef7c4bab8bd675298202,XING,network_hosting,,53.555554,9.98793,2003,500.0
466,52cdef7c4bab8bd675298207,Amobee,advertising,Mobile Advertising Service ,37.52845,-122.263721,2005,
467,52cdef7c4bab8bd675298208,Visible Measures,advertising,Social video analytics & advertising,42.3536303,-71.0590483,2005,
470,52cdef7c4bab8bd67529821e,Heroku,enterprise,cloud application platform,37.775196,-122.419204,2007,80.0
473,52cdef7c4bab8bd675298233,Seatwave,ecommerce,UK based ticket reseller ,51.500152,-0.126236,2006,
474,52cdef7c4bab8bd675298238,BreakingPoint Systems,security,,30.384453,-97.709809,2005,109.0
475,52cdef7c4bab8bd67529824d,Citrix Online,web,,34.431454,-119.855405,2003,700.0
476,52cdef7c4bab8bd67529824e,EnterpriseDB,enterprise,Relational Database Management System,40.562967,-74.332355,2004,
477,52cdef7c4bab8bd675298258,Survey Analytics,web,,47.650674,-122.349863,2003,100.0
478,52cdef7c4bab8bd67529825c,VentureBeat,public_relations,Blog about Venture Funding,37.269175,-119.306607,2006,
481,52cdef7c4bab8bd675298285,RocketOn,web,Multiplayer social games,37.65466,-122.40788,2007,
482,52cdef7c4bab8bd675298299,Limeade,health,,47.6097449,-122.196699,2006,55.0
483,52cdef7c4bab8bd67529829d,Mixbook,web,Online Photo Book Software,37.383844,-121.918319,2006,90.0
485,52cdef7c4bab8bd6752982a6,GameDuell,games_video,Casual Online Games,52.5131826,13.3941489,2003,200.0
486,52cdef7c4bab8bd6752982b4,stickK,web,,40.744837,-73.983843,2007,
488,52cdef7c4bab8bd6752982c2,amiando,web,Online Event Registration,48.124827,11.556452,2006,76.0
489,52cdef7c4bab8bd6752982c2,amiando,web,Online Event Registration,51.5248598,-0.0836311,2006,76.0
490,52cdef7c4bab8bd6752982c2,amiando,web,Online Event Registration,22.2799907,114.1587983,2006,76.0
491,52cdef7c4bab8bd6752982c2,amiando,web,Online Event Registration,48.857993,2.381153,2006,76.0
492,52cdef7c4bab8bd6752982c6,Qype,web,"Location-based reviews, recommendations",53.54598,9.987181,2005,
494,52cdef7c4bab8bd6752982ca,GumGum,advertising,Premium In-Image Advertising Platform,34.052187,-118.243425,2007,55.0
495,52cdef7c4bab8bd6752982cf,TwoFish,ecommerce,managing microtransactions w/i games,37.522281,-122.258139,2006,
497,52cdef7c4bab8bd6752982d4,Advaliant,advertising,,43.646599,-79.403014,2013,60.0
498,52cdef7c4bab8bd6752982d4,Advaliant,advertising,,40.743662,-73.984268,2013,60.0
499,52cdef7c4bab8bd6752982d4,Advaliant,advertising,,40.743662,-73.984268,2013,60.0
500,52cdef7c4bab8bd6752982f0,Sparkplay Media,web,MMO Game developer,37.905544,-122.547445,2006,
501,52cdef7c4bab8bd6752982f1,TheLadders,web,,40.725883,-74.006196,2003,110.0
502,52cdef7c4bab8bd6752982f4,Cellfire,mobile,Digital coupon provider,37.395923,-121.92902,2005,
504,52cdef7c4bab8bd67529830b,MOG,music,"Subscription music service, ad network",37.872222,-122.268403,2005,60.0
509,52cdef7c4bab8bd67529831a,Social Gaming Network,games_video,social gaming platform,37.446823,-122.161523,2011,100.0
510,52cdef7c4bab8bd67529831a,Social Gaming Network,games_video,social gaming platform,34.0698494,-118.4054182,2011,100.0
511,52cdef7c4bab8bd67529834f,doubleTwist,software,Music for the Internet of Things,37.775196,-122.419204,2007,
512,52cdef7c4bab8bd675298360,MediaTrust,advertising,Performance Marketing Company,40.743662,-73.984268,2004,60.0
513,52cdef7c4bab8bd675298367,JackPot Rewards,web,Retail Portal for Charity,42.337037,-71.251748,2008,
514,52cdef7c4bab8bd67529836b,AdoTube,advertising,Video Advertising Management Platform,40.752672,-73.97593,2007,160.0
517,52cdef7c4bab8bd675298373,P2P-Next,hardware,Social Media Conglomerate,52.132633,5.291266,2008,
518,52cdef7c4bab8bd675298375,FameCast,games_video,online talent competition,30.268735,-97.745209,2007,
519,52cdef7c4bab8bd675298376,Grooveshark,web,Streaming music service,29.6502461,-82.3230981,2006,113.0
522,52cdef7c4bab8bd675298382,Evernote,software,Remember everything.,37.386774,-121.987661,2004,280.0
523,52cdef7c4bab8bd67529838b,Raptr,games_video,Social Gaming Community,37.40384,-122.07808,2007,
524,52cdef7c4bab8bd675298396,GoldSpot Media,advertising,Mobile Video and Rich Media Advertising,37.384206,-121.992805,2006,
525,52cdef7c4bab8bd675298397,Ad Infuse,advertising,Advertising for Mobile video,37.793375,-122.404571,2005,
526,52cdef7c4bab8bd67529839a,EVO Media Group,finance,,47.613896,-122.3413,2007,
527,52cdef7c4bab8bd67529839d,Covario,enterprise,Marketing Analytics,32.912063,-117.114827,2006,100.0
528,52cdef7c4bab8bd67529839e,SendMe,mobile,Mobile Content ,37.787126,-122.39783,2006,
529,52cdef7c4bab8bd6752983a3,Kluster,web,Project Collaboration Tool,40.723652,-73.985281,2008,
530,52cdef7c4bab8bd6752983a5,Blog Talk Radio,web,Podcast and web radio site,40.757929,-73.985506,2006,
531,52cdef7c4bab8bd6752983bc,Flurry,advertising,Mobile Analytics and Advertising,37.783046,-122.394067,2005,150.0
536,52cdef7c4bab8bd6752983be,Issuu,web,digital publishing platform and discover,37.4784804,-122.1514101,2006,
537,52cdef7c4bab8bd6752983c2,Howcast,photo_video,,40.646166,-73.889492,2008,
538,52cdef7c4bab8bd6752983c7,SugarSync,web,Data Sync and Online Backup,37.54763,-122.307887,2004,60.0
539,52cdef7c4bab8bd6752983cd,BillShrink,web,Product and service recomendations,37.503147,-122.211435,2008,
540,52cdef7c4bab8bd6752983cf,Teneros,messaging,Data continuity Software,37.389022,-122.062778,2004,
541,52cdef7c4bab8bd6752983d4,Outbrain,web,Content discovery platform,40.757929,-73.985506,2006,
545,52cdef7c4bab8bd6752983dc,Kazeon,enterprise,Legal Software,37.431769,-122.099577,2003,
547,52cdef7c4bab8bd6752983ec,MoFuse,mobile,Building mobile Website,41.826956,-71.408718,2007,
548,52cdef7c4bab8bd6752983f3,OLX,web,international online classifieds,40.8587524,-73.7258199,2006,85.0
551,52cdef7c4bab8bd67529840b,Right Media,advertising,Digital Advertisng Exchange,40.74632,-73.982607,2003,
553,52cdef7c4bab8bd67529841d,FreshBooks,web,"Online billing, invoicing, time tracking",43.70391,-79.452609,2003,110.0
554,52cdef7c4bab8bd675298430,Mzinga,social,Social software solutions,42.489827,-71.223359,2007,
555,52cdef7c4bab8bd67529843a,AtomicOnline,web,A diversified online media company,33.988735,-118.368871,2004,110.0
560,52cdef7c4bab8bd675298441,Phreesia,software,patient check-in software,40.739794,-73.985878,2005,70.0
561,52cdef7c4bab8bd675298447,99designs,design,Online graphic design marketplace,37.7955307,-122.4005983,2008,100.0
562,52cdef7c4bab8bd675298447,99designs,design,Online graphic design marketplace,-37.8026587,144.9868546,2008,100.0
563,52cdef7c4bab8bd675298447,99designs,design,Online graphic design marketplace,52.4986199,13.4469031,2008,100.0
564,52cdef7c4bab8bd675298448,Innofidei,hardware,fabless semiconductor company,39.905556,116.395833,2006,
565,52cdef7c4bab8bd675298457,Ifbyphone,software,Voice-Based Marketing Automation,42.040851,-87.750643,2005,90.0
566,52cdef7c4bab8bd67529845b,LiveRail,advertising,video advertising technology,37.787183,-122.397759,2008,110.0
567,52cdef7c4bab8bd67529845d,Generate,games_video,Cross platform production & management,34.031328,-118.471463,2004,
568,52cdef7c4bab8bd67529845d,Generate,games_video,Cross platform production & management,40.7570972,-73.969821,2004,
569,52cdef7c4bab8bd675298460,OpenDNS,security,Cloud Based Internet Security Provider,37.789268,-122.395184,2005,200.0
570,52cdef7c4bab8bd675298461,Paxfire,,,38.988367,-77.421054,2003,
571,52cdef7c4bab8bd675298463,Kareo,software,Medical SaaS,33.676444,-117.8587,2004,250.0
572,52cdef7c4bab8bd67529846a,VZnet Netzwerke,web,German Social Network,52.5290751,13.4161514,2005,300.0
573,52cdef7c4bab8bd67529847b,Rutube,web,Russian Video Portal,52.78945,36.42735,2006,80.0
574,52cdef7c4bab8bd675298482,Footnote,web,Online document archives,40.3310529,-111.7276347,2006,66.0
575,52cdef7c4bab8bd675298484,Coveo,enterprise,Enterprise search solutions,37.446078,-122.167506,2005,
577,52cdef7c4bab8bd675298488,Vovici,enterprise,Survey software company,38.983393,-77.434128,2006,100.0
578,52cdef7c4bab8bd675298488,Vovici,enterprise,Survey software company,51.4140631,-0.3016459,2006,100.0
580,52cdef7c4bab8bd6752984a5,PI Corporation,network_hosting,Personal Data Cloud Storage,47.602416,-122.332614,2003,
581,52cdef7c4bab8bd6752984b0,Giant Realm,web,Media Hosting,40.7566658,-73.9827553,2007,
582,52cdef7c4bab8bd6752984b1,Mobenga,mobile,Makes betting mobile,56.154292,13.813313,2005,70.0
585,52cdef7c4bab8bd6752984d1,Clickpass,web,,37.775196,-122.419204,2007,90.0
586,52cdef7c4bab8bd6752984d2,Janrain,web,User Management Platform,45.484413,-122.675838,2005,
587,52cdef7c4bab8bd6752984d4,SearchMe,search,visual search engine,37.386665,-122.084171,2005,52.0
588,52cdef7c4bab8bd6752984d4,SearchMe,search,visual search engine,37.793473,-122.402667,2005,52.0
589,52cdef7c4bab8bd6752984e2,AccountNow,web,,37.769922,-122.001446,2003,
590,52cdef7c4bab8bd6752984e7,TalkShoe,web,,40.616311,-80.059548,2005,
591,52cdef7c4bab8bd6752984e9,Workday,enterprise,"human resources, financial management",37.694202,-121.921532,2005,900.0
593,52cdef7c4bab8bd6752984f6,PopularMedia,advertising,Online ad campaign management,37.767575,-122.411157,2003,
594,52cdef7c4bab8bd6752984fb,Clarizen,software,Work & Project management software,37.536044,-122.328401,2005,110.0
596,52cdef7c4bab8bd6752984fc,Next New Networks,web,Micro television network platform,40.743808,-73.983626,2007,121.0
597,52cdef7c4bab8bd675298514,Zuora,software,Subscription billing and management,37.5596277,-122.2709868,2007,250.0
599,52cdef7c4bab8bd67529851b,Jivox,advertising,Interactive video advertising platform.,37.555962,-122.288006,2007,60.0
600,52cdef7c4bab8bd675298521,ShareThis,social,"sharing network, social influence",37.4203945,-122.0872274,2007,80.0
601,52cdef7c4bab8bd675298535,Elastra,software,software company,37.791137,-122.391843,2007,
602,52cdef7c4bab8bd675298538,Star Analytics,software,Business Intelligence Software,37.556152,-122.281484,2004,
604,52cdef7c4bab8bd675298540,SupplyFrame,advertising,Online marketing for electronics,34.143885,-118.151542,2003,60.0
605,52cdef7c4bab8bd675298541,Scalent Systems,public_relations,virtualization software,37.429676,-122.1085482,2003,
607,52cdef7c4bab8bd67529854d,Playfish,games_video,Social games company,51.4991094,-0.1984802,2007,
608,52cdef7c4bab8bd67529854d,Playfish,games_video,Social games company,69.636216,18.931062,2007,
609,52cdef7c4bab8bd675298561,Octopart,search,Vertical Search Engine,37.750608,-122.423581,2007,
610,52cdef7c4bab8bd675298577,Tapioca Mobile,mobile,Mobile rich Media,32.88945,-117.166929,2008,
611,52cdef7c4bab8bd67529858e,Slicethepie,games_video,Fundraising Software,55.378051,-3.435973,2007,
612,52cdef7c4bab8bd675298590,ShowClix,web,Online event ticketing solutions,40.517948,-79.842487,2007,
613,52cdef7c4bab8bd675298591,Handipoints,games_video,Chore point system for kids,37.772323,-122.214897,2009,
614,52cdef7c4bab8bd6752985a1,ScanCafe,web,,37.592584,-122.369676,2006,350.0
615,52cdef7c4bab8bd6752985a5,liveBooks,public_relations,Creative CMS,37.8712444,-122.5036866,2005,53.0
618,52cdef7c4bab8bd6752985a9,KidZui,web,Web browser designed for kids,37.09024,-95.712891,2006,
619,52cdef7c4bab8bd6752985ac,Moblica,mobile,,32.0554,34.7595,2011,
620,52cdef7c4bab8bd6752985c2,Act-On Software,enterprise,Integrated marketing platform,45.484177,-122.79635,2008,
624,52cdef7c4bab8bd6752985d0,Dimdim,web,,42.6161515,-71.3258687,2006,
626,52cdef7c4bab8bd6752985e4,OrangeSoda,advertising,Small business online marketing,40.358294,-111.780243,2006,160.0
627,52cdef7c4bab8bd6752985e6,Aternity,enterprise,end user experience management,42.279967,-71.5827673,2004,
628,52cdef7c4bab8bd6752985e7,Networked Insights,analytics,Marketing Decisions Platform,41.278528,-72.5254318,2006,130.0
629,52cdef7c4bab8bd6752985e7,Networked Insights,analytics,Marketing Decisions Platform,40.745559,-73.986243,2006,130.0
630,52cdef7c4bab8bd6752985e7,Networked Insights,analytics,Marketing Decisions Platform,41.879979,-87.634173,2006,130.0
631,52cdef7c4bab8bd675298608,Magento,ecommerce,eCommerce Platform,34.052187,-118.243425,2010,275.0
632,52cdef7c4bab8bd675298609,Netbooks,web,,37.79471,-122.40195,2006,
633,52cdef7c4bab8bd67529862d,babbel,education,Learn Languages Online,52.4897,13.38861,2007,205.0
634,52cdef7c4bab8bd675298631,7digital,music,Digital Media Delivery,51.5254,-0.083726,2004,120.0
635,52cdef7c4bab8bd675298646,Kannuu,software,Stop Searching Start Finding,32.9249424,-96.7679229,2007,
636,52cdef7c4bab8bd675298650,Wikimedia Foundation,nonprofit,Open source information distribution,37.76785,-122.392839,2003,143.0
637,52cdef7c4bab8bd675298651,Clearwell Systems,software,Computer Software,37.398022,-122.049143,2004,210.0
638,52cdef7c4bab8bd67529865a,Become,search,Shoping and comparison service,37.424801,-122.07259,2004,
640,52cdef7c4bab8bd675298664,Business Insider,web,Business News reporter,40.73906,-73.990911,2007,
641,52cdef7c4bab8bd675298666,The Echo Nest,music,Music Intelligence Company,42.396495,-71.12045,2005,65.0
643,52cdef7c4bab8bd67529866c,BeInSync,network_hosting,Backup Data Storage,32.0554,34.7595,2004,
645,52cdef7c4bab8bd675298671,Perfect Market,software,Digital Publishing Software & Services,34.146436,-118.153136,2007,60.0
647,52cdef7c4bab8bd675298672,iovation,security,Online Fraud Detection,45.52254,-122.675536,2004,65.0
648,52cdef7c4bab8bd67529867a,Glassdoor,web,Jobs and Career Community,37.868002,-122.500111,2007,180.0
649,52cdef7c4bab8bd675298690,itzbig,search,,30.387275,-97.759511,2006,
650,52cdef7c4bab8bd675298696,Marketo,software,Marketing Automation Software,37.5583,-122.301385,2006,260.0
651,52cdef7c4bab8bd675298698,Bonobos,ecommerce,E-commerce driven men's retailer,40.7384997,-73.9954585,2007,150.0
652,52cdef7c4bab8bd67529869e,Edmodo,education,Social learning network,41.857915,-88.321171,2008,100.0
654,52cdef7c4bab8bd6752986b1,Xoopit,web,Email management add-on,37.7617955,-122.4092704,2004,
655,52cdef7c4bab8bd6752986b8,Reality Digital,software,White Label Social Media,37.859443,-122.291817,2003,
656,52cdef7c4bab8bd6752986bb,Q-Layer,software,Datacenter Management,51.070829,3.771122,2005,
657,52cdef7c4bab8bd6752986c1,Adlucent,software,,30.316226,-97.71813,2005,85.0
658,52cdef7c4bab8bd6752986c5,Metaversum,web,Virtual world providor,52.512249,13.419841,2006,
659,52cdef7c4bab8bd6752986cb,Placecast,mobile,,37.773688,-122.423468,2005,
661,52cdef7c4bab8bd675298709,Egnyte,enterprise,Hybrid Cloud File Sharing for Business,37.429647,-122.100288,2006,
662,52cdef7c4bab8bd675298710,Jodange,web,Business prediction company,40.934803,-73.901839,2007,
664,52cdef7c4bab8bd67529873e,Odeo,web,,40.753918,-73.981237,2005,60.0
665,52cdef7c4bab8bd675298740,Cellfish,web,Global Mobile Media Publisher,40.761855,-73.983754,2004,220.0
666,52cdef7c4bab8bd675298743,eSolar,cleantech,Solar Thermal Power Plant,34.146436,-118.153136,2007,140.0
667,52cdef7c4bab8bd675298745,Krugle,search,Source Code Search enging,37.45604,-122.165399,2006,
668,52cdef7c4bab8bd675298752,Marin Software,advertising,Online Advertising Management,37.792083,-122.3946404,2006,
669,52cdef7c4bab8bd675298754,Huddle,enterprise,Cloud Content Collaboration,51.4999065,-0.0814873,2006,200.0
670,52cdef7c4bab8bd675298754,Huddle,enterprise,Cloud Content Collaboration,37.78236,-122.403256,2006,200.0
672,52cdef7c4bab8bd67529875c,SiBEAM,mobile,fabless semiconductor company,37.390704,-122.03039,2004,
673,52cdef7c4bab8bd675298788,RichRelevance,ecommerce,Personalization Provider,37.7938969,-122.4000965,2006,250.0
678,52cdef7c4bab8bd67529878a,Someecards,web,Free online greeting cards,40.737778,-73.979508,2007,
679,52cdef7c4bab8bd67529878d,mySupermarket,web,Online Shopping Comparison,53.478714,-2.244824,2006,
680,52cdef7c4bab8bd67529878d,mySupermarket,web,Online Shopping Comparison,51.513671,-0.159205,2006,
682,52cdef7c4bab8bd67529879a,Labmeeting,web,online platform for scientists,37.269175,-119.306607,2007,
683,52cdef7c4bab8bd67529879c,Trovit,ecommerce,,41.388769,2.1299487,2006,56.0
684,52cdef7c4bab8bd6752987a5,PixelCrayons,web,Web Design and Development Company,28.682042,77.087502,2004,200.0
685,52cdef7c4bab8bd6752987a8,mediaFORGE,advertising,Ad retargeting & measurement,40.634468,-111.804504,2005,
687,52cdef7c4bab8bd6752987cf,ProcServe,ecommerce,Hosted eProcurement Solutions ,51.494067,-0.146665,2006,55.0
688,52cdef7c4bab8bd6752987d5,Mojiva,mobile,Mobile Advertising,40.7185614,-73.998662,2008,105.0
694,52cdef7c4bab8bd6752987f1,GitHub,software,Social Coding,37.775196,-122.419204,2008,106.0
695,52cdef7c4bab8bd6752987f2,YUPPTV,games_video,"Watch your favorite live tv on internet,",17.415429,78.434422,2008,70.0
696,52cdef7c4bab8bd6752987fd,Iminent,software,Instant messaging products,48.8522431,2.387422,2006,
697,52cdef7c4bab8bd675298812,AdXpose,advertising,Advertising Quality and Optimization,47.635354,-122.340459,2005,
700,52cdef7c4bab8bd675298837,Globant,software,Innovative Software Product Creation,-34.5967236,-58.3708904,2003,2800.0
701,52cdef7c4bab8bd675298837,Globant,software,Innovative Software Product Creation,42.2261823,-71.5174869,2003,2800.0
702,52cdef7c4bab8bd675298837,Globant,software,Innovative Software Product Creation,51.5205095,-0.0952197,2003,2800.0
703,52cdef7c4bab8bd675298837,Globant,software,Innovative Software Product Creation,37.7819286,-122.4041764,2003,2800.0
705,52cdef7c4bab8bd675298837,Globant,software,Innovative Software Product Creation,-23.5606195,-46.6816579,2003,2800.0
706,52cdef7c4bab8bd675298837,Globant,software,Innovative Software Product Creation,4.7595921,-74.0632101,2003,2800.0
707,52cdef7c4bab8bd675298837,Globant,software,Innovative Software Product Creation,-34.8836111,-56.1819444,2003,2800.0
709,52cdef7c4bab8bd675298837,Globant,software,Innovative Software Product Creation,-34.6776448,-58.3840599,2003,2800.0
710,52cdef7c4bab8bd675298837,Globant,software,Innovative Software Product Creation,-37.3281072,-59.1340915,2003,2800.0
711,52cdef7c4bab8bd675298837,Globant,software,Innovative Software Product Creation,-27.4533887,-58.9871056,2003,2800.0
712,52cdef7c4bab8bd675298837,Globant,software,Innovative Software Product Creation,-26.8007888,-65.3024825,2003,2800.0
713,52cdef7c4bab8bd675298837,Globant,software,Innovative Software Product Creation,-38.7211371,-62.2690974,2003,2800.0
714,52cdef7c4bab8bd67529883c,RealMatch,advertising,Recruitment Ad Networks,39.047912,-77.19544,2004,
715,52cdef7c4bab8bd67529883d,Collective Intellect,enterprise,Real-time market intelligence,40.0186313,-105.2764361,2005,
716,52cdef7c4bab8bd675298841,AdShuffle,advertising,,32.860831,-96.9403,2005,90.0
717,52cdef7c4bab8bd675298850,Apture,web,Rich multimedia linking,37.566042,-122.322954,2007,
719,52cdef7c4bab8bd675298857,InMobi,mobile,Mobile advertising network,37.4465496,-122.1709208,2007,900.0
720,52cdef7c4bab8bd675298857,InMobi,mobile,Mobile advertising network,1.284082,103.851942,2007,900.0
727,52cdef7c4bab8bd675298873,TigerLogic,social,Social Mobile Platforms,33.651624,-117.739227,2008,120.0
728,52cdef7d4bab8bd6752988a5,Health Plan One,web,Online health insurance marketplace,41.262403,-73.135894,2006,
729,52cdef7d4bab8bd6752988ac,Modern Feed,games_video,,34.085749,-118.343791,2007,123.0
730,52cdef7d4bab8bd6752988ec,Retail Convergence,ecommerce,Portfolio of ecommerce applications,42.35888,-71.05682,2008,
731,52cdef7d4bab8bd675298900,OPEN Sports Network,sports,Crowdsourced Sports Network,26.310509,-80.127087,2007,
732,52cdef7d4bab8bd675298908,TuneWiki,music,social media player,37.412577,-121.916861,2007,
733,52cdef7d4bab8bd67529891b,Spotify,music,Music streaming over the internet,49.607295,6.121511,2006,5000.0
740,52cdef7d4bab8bd675298922,Adify,advertising,Self Service Ad Network,37.629393,-122.424975,2006,120.0
741,52cdef7d4bab8bd675298925,InvenSense,semiconductor,motion processing solutions,37.407445,-122.019405,2003,400.0
746,52cdef7d4bab8bd675298927,Wigix,ecommerce,,37.09024,-95.712891,2007,
747,52cdef7d4bab8bd675298939,Center'd,web,Local Things To Do,37.452992,-122.185098,2006,
748,52cdef7d4bab8bd67529893a,Indochino,ecommerce,Custom Menswear,48.487589,-123.337608,2007,
749,52cdef7d4bab8bd67529893c,Kabam,games_video,Leader in Gaming,37.3944561,-122.0785314,2006,650.0
751,52cdef7d4bab8bd67529893d,Pontiflex,advertising,Mobile and Online Signup Ads Platform,40.702692,-73.989613,2008,
753,52cdef7d4bab8bd675298954,ImportGenius,search,International Trade Records Search,31.251516,121.459147,2008,75.0
754,52cdef7d4bab8bd675298955,Mind Candy,web,,51.471958,-0.147646,2003,
755,52cdef7d4bab8bd67529895a,kajeet,mobile,Teen Mobile Virtual Network,38.9806,-77.1008,2003,
756,52cdef7d4bab8bd675298961,New Relic,software,SaaS Application Performance Management,37.269175,-119.306607,2008,63.0
757,52cdef7d4bab8bd675298966,Velocify,software,Intelligent Sales Software,33.9192583,-118.3952969,2004,125.0
758,52cdef7d4bab8bd675298970,Pixsta,web,Visual Search for ecommerce,51.51819,-0.208979,2010,
759,52cdef7d4bab8bd675298978,Tripwolf,web,Social travel guide and planner,48.220357,16.355,2007,
760,52cdef7d4bab8bd67529897f,PatientsLikeMe,health,Healthcare Network,42.3674989,-71.0793952,2004,200.0
761,52cdef7d4bab8bd675298985,Zinch,web,Connecting students with opportunities,40.234451,-111.658656,2007,80.0
764,52cdef7d4bab8bd675298992,GodTube,games_video,video-driven Christian social network,33.075067,-96.823962,2007,
767,52cdef7d4bab8bd6752989c3,OVGuide,games_video,guide to online video sites,34.052187,-118.243425,2006,
769,52cdef7d4bab8bd6752989d3,FuGen Solutions,web,,37.384239,-122.012475,2006,
770,52cdef7d4bab8bd6752989e0,Talend,analytics,Open source integration software,37.371908,-122.111711,2005,400.0
771,52cdef7d4bab8bd6752989e1,SnapLogic,enterprise,The Cloud Integration Company,37.558245,-122.302654,2006,
772,52cdef7d4bab8bd6752989ea,Wirama,hardware,,37.384239,-122.012475,2006,
773,52cdef7d4bab8bd6752989ec,EatLime,photo_video,Video/Photo upload and distribution site,37.7749295,-122.4194155,2007,
774,52cdef7d4bab8bd6752989fd,Cartedge,software,,40.622919,-111.900917,2006,100.0
775,52cdef7d4bab8bd675298a02,sevenload,games_video,Internet Television Social Network,50.945289,6.921546,2006,67.0
776,52cdef7d4bab8bd675298a05,NewsCred,advertising,,46.223157,6.124424,2008,70.0
777,52cdef7d4bab8bd675298a05,NewsCred,advertising,,23.709921,90.407143,2008,70.0
778,52cdef7d4bab8bd675298a12,Boardwalktech,software,,37.431941,-122.103076,2004,75.0
779,52cdef7d4bab8bd675298a14,amazingtunes,games_video,,54.971346,-1.611141,2006,
780,52cdef7d4bab8bd675298a27,ClairMail,finance,Mobile banking,38.057107,-122.513742,2004,
781,52cdef7d4bab8bd675298a30,FIRST ROI,advertising,emarketing for banks & credit unions,30.432421,-97.732059,2006,100.0
782,52cdef7d4bab8bd675298a34,Appfolio,real_estate,Property management,34.433463,-119.863565,2006,
783,52cdef7d4bab8bd675298a35,BioIQ,biotech,,34.424185,-119.704902,2005,
784,52cdef7d4bab8bd675298a3b,CitizenHawk,advertising,digital brand management solutions,33.571604,-117.734795,2006,
786,52cdef7d4bab8bd675298a50,Passenger,social,SaaS Private Online InnovatioCommunities,34.029956,-118.308943,2005,
788,52cdef7d4bab8bd675298a52,IP Commerce,network_hosting,Open commerce network,39.74893,-104.99342,2005,
789,52cdef7d4bab8bd675298a53,TuneUp,music,,37.7654195,-122.4119381,2007,
790,52cdef7d4bab8bd675298a55,SimpleTuition,finance,Student loan search,42.297418,-71.214796,2005,
791,52cdef7d4bab8bd675298a56,Sparkroom,advertising,Marketing Analytics,43.6683,-79.385969,2007,
792,52cdef7d4bab8bd675298a57,Tyfone,mobile,mobile financial services,45.5105,-122.674995,2004,
793,52cdef7d4bab8bd675298aa0,Raydiance,manufacturing,,38.96524,-77.083389,2004,
794,52cdef7d4bab8bd675298aaf,Tiny Prints,ecommerce,Premium Personalized Stationery,37.395902,-122.056739,2004,250.0
796,52cdef7d4bab8bd675298ab2,BusinessCard2,web,Virtual Business Cards,45.004089,-93.250179,2006,
797,52cdef7d4bab8bd675298abb,SocialVibe,advertising,Engagement Advertising,34.0815238,-118.3826743,2007,80.0
801,52cdef7d4bab8bd675298ae3,NextBio,enterprise,Life science Informatics,37.316653,-122.05074,2004,75.0
802,52cdef7d4bab8bd675298ae4,Parascale,network_hosting,Cloud Storage software ,37.316653,-122.05074,2005,
803,52cdef7d4bab8bd675298ae6,Zoosk,social,Behavioral Matchmaking(TM),37.7726402,-122.4099154,2007,
804,52cdef7d4bab8bd675298ae7,Aquantia,semiconductor,Semiconductor Company,37.4130233,-121.9175461,2004,
805,52cdef7d4bab8bd675298ae8,Aprius,hardware,Server technology,47.6409655,-117.5357108,2006,
806,52cdef7d4bab8bd675298aff,Kenriche Technologies,advertising,,13.1620756,80.2586406,2006,55.0
808,52cdef7d4bab8bd675298b05,ClearContext,software,,39.6523451,-104.9832304,2003,
809,52cdef7d4bab8bd675298b1f,Ztail,ecommerce,resale price protection,37.44931,-122.160011,2005,
810,52cdef7d4bab8bd675298b26,AirCell,messaging,,41.989344,-88.004903,2005,
811,52cdef7d4bab8bd675298b29,Row44,network_hosting,aircraft broadband connectivity,34.143152,-118.80146,2004,
813,52cdef7d4bab8bd675298b37,Bizo,advertising,Business Audience Marketing ,37.7911186,-122.4011706,2008,66.0
814,52cdef7d4bab8bd675298b39,Lightfleet,hardware,,45.63256,-122.462093,2003,55.0
815,52cdef7d4bab8bd675298b4c,Sonico,social,Voice and digital entertainment websites,-34.611781,-58.417309,2007,84.0
818,52cdef7d4bab8bd675298b4f,eBureau,analytics,,45.560899,-94.159452,2004,55.0
819,52cdef7d4bab8bd675298b52,Moblyng,games_video,HTML5 Social Games,37.453665,-122.229069,2005,
820,52cdef7d4bab8bd675298b60,Sirtris Pharmaceuticals,biotech,Biopharmaceutical Company,42.363567,-71.091189,2004,
821,52cdef7d4bab8bd675298b66,Knewton,education,Adaptive Learning Platform,40.7310476,-74.0078134,2008,145.0
822,52cdef7d4bab8bd675298b6a,AtHoc,security,Interactive Crisis Communication,37.560747,-122.284001,2005,150.0
823,52cdef7d4bab8bd675298b76,CoverItLive,web,Liveblogging tool,43.6378576,-79.4255306,2007,
824,52cdef7d4bab8bd675298ba8,Campus Explorer,search,college search engine,34.031178,-118.463841,2007,
825,52cdef7d4bab8bd675298bb5,C4Media,other,,43.670233,-79.386755,2005,61.0
826,52cdef7d4bab8bd675298bd9,PurePlay,games_video,play-for-cash online poker game,37.775196,-122.419204,2004,
827,52cdef7d4bab8bd675298c05,GreenNote,web,Student Lending Site,37.492685,-122.227765,2007,65.0
828,52cdef7d4bab8bd675298c16,Aptera,automotive,,33.133524,-117.254593,2003,
830,52cdef7d4bab8bd675298c2a,M:Metrics,mobile,Mobile Media Measurements,47.620716,-122.347533,2004,
831,52cdef7d4bab8bd675298c2f,B-hive Networks,software,Infrastructure Manager,37.536402,-122.325129,2005,
832,52cdef7d4bab8bd675298c47,Intelius,web,,47.614723,-122.196262,2003,131.0
834,52cdef7d4bab8bd675298c61,TeleFlip,mobile,Mobile Email,34.01695,-118.451933,2004,
836,52cdef7d4bab8bd675298c7d,Jigsaw,web,,37.552806,-122.291602,2003,
837,52cdef7d4bab8bd675298c7f,NetProspex,analytics,Verified B2B Contacts,42.375034,-71.251069,2006,
838,52cdef7d4bab8bd675298c81,Backblaze,software,,37.44296,-122.151198,2007,
840,52cdef7d4bab8bd675298c86,Ozmo Devices,hardware,WiFi Communication Technology Developer,37.446152,-122.117722,2004,
845,52cdef7d4bab8bd675298caa,TuneCore,games_video,,40.704382,-73.986572,2005,
846,52cdef7d4bab8bd675298cae,Cooliris,web,Immersive media experiences,37.421447,-122.141604,2006,
847,52cdef7d4bab8bd675298cba,Gamook,games_video,Online Game Sharing,37.41924,-122.208414,2008,
848,52cdef7d4bab8bd675298cc1,Vindicia,analytics,SaaS Marketing & Billing,37.538418,-122.252115,2003,100.0
849,52cdef7d4bab8bd675298cc3,WSO2,software,Lean enterprise middleware vendor,37.390918,-122.080843,2005,228.0
850,52cdef7d4bab8bd675298cc3,WSO2,software,Lean enterprise middleware vendor,50.8472228,-0.919424,2005,228.0
852,52cdef7d4bab8bd675298cce,Dizzywood,games_video,Tween Virtual World,37.269175,-119.306607,2007,
853,52cdef7d4bab8bd675298cd0,BumpTop,software,3D Desktops,43.648786,-79.3777473,2007,
856,52cdef7d4bab8bd675298d3f,The Receivables Exchange,ecommerce,real-time trading of accounts receivable,40.757651,-73.9752768,2007,70.0
857,52cdef7d4bab8bd675298d41,Sense Networks,mobile,Mobile location advertising,40.724647,-73.999636,2003,
858,52cdef7d4bab8bd675298d46,Brainware,software,,39.0601,-77.464018,2006,65.0
859,52cdef7d4bab8bd675298d5f,Practice Fusion,health,"Free,Web-based Electronic Health Records",37.7886717,-122.392725,2005,280.0
860,52cdef7d4bab8bd675298d6d,Tribe,web,,37.2399312,-121.9609305,2003,
861,52cdef7d4bab8bd675298d70,HireVue,web,Interview Software and Services,40.554467,-111.9137871,2004,
862,52cdef7d4bab8bd675298d7a,Codefast,software,Automated Software Development,37.316466,-121.873881,2004,
863,52cdef7d4bab8bd675298d7e,RRD USA,mobile,,40.748342,-73.984606,2004,60.0
864,52cdef7d4bab8bd675298d86,Accertify,security,Fraud prevention tools for merchants,42.048203,-88.031569,2007,
865,52cdef7d4bab8bd675298d89,HealthiNation,web,Health and wellness video provider,40.739341,-73.988357,2005,
870,52cdef7d4bab8bd675298d9a,Odnoklassniki,public_relations,Russian Social Network,51.762981,114.787903,2006,207.0
873,52cdef7d4bab8bd675298da1,Socialcast,enterprise,Social Business Communication Software,37.7819267,-122.3932389,2005,
874,52cdef7d4bab8bd675298daf,Hyperic,software,management software for Web apps,37.4027811,-122.1441615,2004,
875,52cdef7d4bab8bd675298dda,Stardoll,games_video,Mature Tween Virtual Website,59.345553,18.037611,2004,
877,52cdef7d4bab8bd675298de3,Optaros,consulting,consulting and systems integration,42.356812,-71.058185,2004,200.0
878,52cdef7d4bab8bd675298e0a,Making Sense,software,Creating Enjoyable Apps,29.516352,-98.43676,2006,100.0
879,52cdef7d4bab8bd675298e0a,Making Sense,software,Creating Enjoyable Apps,-34.5892808,-58.43297,2006,100.0
880,52cdef7d4bab8bd675298e0a,Making Sense,software,Creating Enjoyable Apps,-38.0060917,-57.5582444,2006,100.0
881,52cdef7d4bab8bd675298e1a,Aurora Biofuels,cleantech,grows algae for producing bio-oil,37.6266932,-122.1169032,2007,
882,52cdef7d4bab8bd675298e1a,Aurora Biofuels,cleantech,grows algae for producing bio-oil,37.6688205,-122.0807964,2007,
889,52cdef7d4bab8bd675298e35,GARA Web Hosting,web,,42.585951,-83.126814,2006,480.0
891,52cdef7d4bab8bd675298e46,GET Holding NV,enterprise,Business to business perishable products,52.475393,4.812833,2007,78.0
893,52cdef7d4bab8bd675298e64,InsideView,enterprise,Sales Intelligence,37.764169,-122.402021,2005,150.0
895,52cdef7d4bab8bd675298e81,Bootup Labs,consulting,startup seed accelerator,49.2846085,-123.110394,2008,
896,52cdef7d4bab8bd675298e9d,Ziplocal,search,Online Local Serach Engine,43.650105,-79.396805,2006,
897,52cdef7d4bab8bd675298e9d,Ziplocal,search,Online Local Serach Engine,45.498179,-73.565316,2006,
898,52cdef7d4bab8bd675298ea5,HIRO Media,advertising,,32.0554,34.7595,2004,
899,52cdef7d4bab8bd675298eb0,SpikeSource,software,software certification company,37.510805,-122.203744,2004,
900,52cdef7d4bab8bd675298eb6,Blueprint Software Systems,enterprise,Requirements Management Software,43.65101,-79.381254,2004,100.0
901,52cdef7d4bab8bd675298ee2,NameMedia,advertising,,42.389557,-71.260509,2005,150.0
902,52cdef7d4bab8bd675298f02,Samba Tech,enterprise,Online Video Solutions,-19.815731,-43.954223,2005,60.0
903,52cdef7d4bab8bd675298f03,Alereon,semiconductor,Fabless Semiconductor Company,30.375563,-97.78192,2003,75.0
904,52cdef7d4bab8bd675298f04,AdParlor,advertising,Facebook Advertising,43.8356434,-79.4418543,2008,300.0
905,52cdef7d4bab8bd675298f04,AdParlor,advertising,Facebook Advertising,40.7262412,-74.0073271,2008,300.0
906,52cdef7d4bab8bd675298f04,AdParlor,advertising,Facebook Advertising,51.5119883,-0.1260146,2008,300.0
907,52cdef7d4bab8bd675298f04,AdParlor,advertising,Facebook Advertising,37.78866,-122.401406,2008,300.0
908,52cdef7d4bab8bd675298f04,AdParlor,advertising,Facebook Advertising,31.224588,121.480029,2008,300.0
909,52cdef7d4bab8bd675298f04,AdParlor,advertising,Facebook Advertising,48.8506065,2.3797825,2008,300.0
910,52cdef7d4bab8bd675298f18,VBS TV,games_video,,40.720764,-73.957968,2006,100.0
911,52cdef7d4bab8bd675298f2f,FlyCast,mobile,News and Music Streaming Technology,40.039353,-76.307448,2006,
912,52cdef7d4bab8bd675298f3a,LicenseStream,enterprise,licensing automation platform,40.7309047,-74.006311,2003,
913,52cdef7d4bab8bd675298f42,OkCupid,web,Free Online Dating,40.7368158,-73.9955426,2003,
914,52cdef7d4bab8bd675298f53,MarkLogic,enterprise,Enterprise NoSQL Database,37.506272,-122.246867,2003,240.0
915,52cdef7d4bab8bd675298f85,RightScale,enterprise,Cloud management solution,34.420316,-119.688412,2006,
918,52cdef7d4bab8bd675298f8d,Photobucket,web,Image hosting and sharing website,47.601803,-122.332085,2003,100.0
919,52cdef7d4bab8bd675298f9b,Cleartrip,travel,,18.9978594,72.8367776,2006,500.0
920,52cdef7d4bab8bd675298fa0,Mendix,enterprise,The App Platform for the Enterprise,51.9047086,4.4574464,2005,150.0
922,52cdef7d4bab8bd675298fae,Drimki,ecommerce,,48.856667,2.350987,2007,
923,52cdef7d4bab8bd675298fdf,Neocleus,enterprise,IT and Virtualization tools,40.716438,-74.033872,2006,
924,52cdef7d4bab8bd675298fe9,Lehigh Technologies,cleantech,Rubber recycling,26.215648,-81.80187,2003,
925,52cdef7d4bab8bd675298fef,Avature,software,,40.706271,-74.009242,2004,120.0
928,52cdef7d4bab8bd675299011,Aylus Networks,mobile,multimedia sharing solutions,42.559391,-71.432373,2005,
930,52cdef7d4bab8bd67529902c,plista,advertising,recommendation and advertising network,52.5283614,13.4124563,2008,100.0
931,52cdef7d4bab8bd67529902d,Affinegy,software,,30.271891,-97.816472,2003,
933,52cdef7d4bab8bd675299035,Spendji,public_relations,,42.507486,-83.175991,2007,
934,52cdef7d4bab8bd675299035,Spendji,public_relations,,37.87168,-122.269494,2007,
936,52cdef7d4bab8bd6752990b4,Flowgram,web,Browser-based screencast,37.7710177,-122.4025976,2007,
937,52cdef7d4bab8bd6752990dc,Neato Robotics,hardware,Home robots,37.414232,-122.0875443,2005,
938,52cdef7d4bab8bd6752990e8,Willard John Thomas Associates,consulting,Financial Technology Consulting,-33.42536,-70.566466,2008,60.0
939,52cdef7d4bab8bd6752990e8,Willard John Thomas Associates,consulting,Financial Technology Consulting,22.572646,88.363895,2008,60.0
940,52cdef7d4bab8bd6752990e8,Willard John Thomas Associates,consulting,Financial Technology Consulting,28.635308,77.22496,2008,60.0
941,52cdef7d4bab8bd6752990e8,Willard John Thomas Associates,consulting,Financial Technology Consulting,40.74727,-73.980064,2008,60.0
942,52cdef7d4bab8bd675299107,YouMail,messaging,,33.58273,-117.727468,2007,
943,52cdef7d4bab8bd675299122,PurpleTalk,mobile,Mobile Apps and Product Development,37.387712,-121.990755,2008,350.0
947,52cdef7d4bab8bd67529913d,Mobiquest,mobile,,1.326725,103.894124,2007,300.0
948,52cdef7d4bab8bd675299143,Medialets,advertising,Mobile 3rd Party Ad Server & Rich Media,40.756054,-73.986951,2008,60.0
949,52cdef7d4bab8bd675299143,Medialets,advertising,Mobile 3rd Party Ad Server & Rich Media,37.775196,-122.419204,2008,60.0
950,52cdef7d4bab8bd67529914b,Bitly,web,URL shortener,40.74034,-74.00721,2008,
951,52cdef7d4bab8bd67529916b,Flat World Knowledge,software,Open College Textbooks,41.091306,-73.923422,2007,
952,52cdef7d4bab8bd675299196,Involver,software,Social Marketing Platform,37.788653,-122.401333,2007,
953,52cdef7d4bab8bd67529919a,Videoplaza,advertising,Video Ad Management,51.5212481,-0.1020894,2007,70.0
954,52cdef7d4bab8bd67529919a,Videoplaza,advertising,Video Ad Management,59.3351833,18.0333601,2007,70.0
955,52cdef7d4bab8bd67529919a,Videoplaza,advertising,Video Ad Management,52.5372765,13.3787413,2007,70.0
956,52cdef7d4bab8bd67529919a,Videoplaza,advertising,Video Ad Management,1.2821008,103.8508327,2007,70.0
957,52cdef7d4bab8bd67529919a,Videoplaza,advertising,Video Ad Management,40.4596242,-3.6923285,2007,70.0
958,52cdef7d4bab8bd67529919f,DaWanda,network_hosting,,52.52647,13.3892214,2006,
959,52cdef7d4bab8bd6752991bc,Riot Games,games_video,Video game developer,34.0025911,-118.3942383,2006,
960,52cdef7d4bab8bd6752991ea,Zendesk,software,customer service solution,55.676294,12.568116,2007,400.0
961,52cdef7d4bab8bd6752991ee,Streetline,hardware,Connecting the Real World,37.782085,-122.409747,2005,
962,52cdef7d4bab8bd6752991f5,neoSaej,web,,42.485691,-71.19862,2006,
964,52cdef7d4bab8bd675299227,LiquidTalk,software,mobile workforce solutions,41.831001,-87.626918,2006,
967,52cdef7d4bab8bd67529926a,BlogHer,web,female blog community,37.491356,-122.228843,2005,
968,52cdef7d4bab8bd675299271,Devshop,software,,45.427672,-75.693788,2005,
969,52cdef7d4bab8bd6752992a1,Cherwell Software,software,,39.010667,-104.81628,2004,
970,52cdef7d4bab8bd6752992a8,Lexy,games_video,audio content distribution platform,37.786906,-122.397672,2006,
971,52cdef7d4bab8bd6752992ac,SingleHop,network_hosting,managed internet infrastructure,41.877867,-87.634781,2006,
974,52cdef7d4bab8bd6752992f0,Minted,ecommerce,marketplace for design and art,37.797435,-122.403175,2007,115.0
975,52cdef7d4bab8bd6752992fd,Appirio,enterprise,Cloud Computing Solution Provider,37.5552776,-122.2997532,2006,500.0
976,52cdef7d4bab8bd675299304,Kontagent,analytics,Mobile Analytics,37.7797255,-122.4020593,2007,80.0
978,52cdef7d4bab8bd675299327,MapVersa,software,India Maps Data Provider,32.902266,-117.20834,2008,110.0
979,52cdef7d4bab8bd67529932a,Buysight,advertising,,37.425359,-122.1389633,2008,
980,52cdef7d4bab8bd67529933d,Eye-Fi,hardware,Consumer Electronics,37.392428,-122.072479,2005,
981,52cdef7d4bab8bd675299341,Qumu,software,Enterprise Video Communications,37.630551,-122.422113,2003,150.0
982,52cdef7d4bab8bd67529934a,GreenRoad Technologies,cleantech,in-vehicle sensors/analysis,37.527315,-122.263434,2006,
985,52cdef7d4bab8bd675299366,CarbonFlow,software,,37.779097,-122.39365,2006,
986,52cdef7d4bab8bd675299366,CarbonFlow,software,,-33.867139,151.207114,2006,
987,52cdef7d4bab8bd675299366,CarbonFlow,software,,51.500152,-0.126236,2006,
988,52cdef7d4bab8bd67529936c,DATAllegro,network_hosting,Data Warehousing Application Provider,33.581675,-117.726176,2003,
989,52cdef7d4bab8bd67529936f,EffectiveUI,software,,39.755152,-104.990968,2005,97.0
990,52cdef7d4bab8bd67529936f,EffectiveUI,software,,43.158821,-77.585297,2005,97.0
992,52cdef7d4bab8bd675299376,Yatra online,travel,,28.4404308,77.0789194,2006,1000.0
993,52cdef7d4bab8bd675299397,Huddler,web,We Know Communities.,37.7893215,-122.4013624,2007,52.0
994,52cdef7d4bab8bd6752993a7,Prezi,software,Presentation Software,47.490346,19.059078,2009,110.0
997,52cdef7d4bab8bd6752993ba,Livebookings,advertising,Restaurant reservations and marketing,51.5112139,-0.1198244,2005,160.0
998,52cdef7d4bab8bd6752993e9,Admeld,advertising,Publisher Ad Platform,40.755253,-73.992152,2007,
1001,52cdef7d4bab8bd6752993ea,Halosys,software,,37.3858901,-121.9708095,2005,62.0
1005,52cdef7d4bab8bd6752993f6,Industria,software,Systems integrator,51.500152,-0.126236,2003,100.0
1008,52cdef7d4bab8bd675299402,Anvato,games_video,Video Platform Live and OnDemand,37.400689,-122.0572,2007,
1011,52cdef7d4bab8bd675299421,ngmoco,games_video,Games for the iPhone,37.7705096,-122.4015807,2008,150.0
1012,52cdef7d4bab8bd67529942a,Local Marketers,web,,47.5989681,-122.3329036,2005,
1015,52cdef7d4bab8bd675299458,AppNexus,advertising,Real-time ad buying platform,40.7250495,-73.9970912,2007,
1017,52cdef7d4bab8bd675299463,Dataupia,enterprise,Data warehouse appliance,42.3988457,-71.1404961,2005,60.0
1018,52cdef7d4bab8bd67529946d,Conductor,search,natural search,40.746332,-73.982596,2007,55.0
1031,52cdef7d4bab8bd67529949e,Pricelock,cleantech,,37.518539,-122.254275,2006,
1032,52cdef7d4bab8bd6752994a6,GetYourGuide,travel,Booking website for tours & activities,47.3912899,8.5082891,2009,75.0
1035,52cdef7d4bab8bd6752994b1,Sharethrough,advertising,Native Advertising,37.7976785,-122.4018163,2008,80.0
1041,52cdef7d4bab8bd6752994f6,dynaTrace software,software,application performance management,42.391389,-71.270987,2005,
1042,52cdef7d4bab8bd6752994f6,dynaTrace software,software,application performance management,48.3295209,14.3194706,2005,
1043,52cdef7d4bab8bd675299506,SpiderOak,web,,42.142261,-87.862305,2007,
1044,52cdef7d4bab8bd675299533,J-Curve Technologies,other,,33.451235,-111.99253,2006,100.0
1045,52cdef7d4bab8bd675299534,Hyper9,software,Virtual Infrastructure Management,30.387353,-97.753163,2006,
1046,52cdef7d4bab8bd675299535,Koolanoo Group,web,China Internet & New Media Investments,39.905556,116.395833,2005,280.0
1048,52cdef7d4bab8bd67529953e,IntelePeer,enterprise,Cloud-based communication services,37.536394,-122.326141,2003,
1049,52cdef7d4bab8bd67529953e,IntelePeer,enterprise,Cloud-based communication services,39.755363,-105.008551,2003,
1050,52cdef7d4bab8bd675299541,RoyaltyShare,public_relations,,32.893366,-117.200035,2005,
1052,52cdef7d4bab8bd675299548,InstallFree,software,,41.073034,-73.550452,2006,
1054,52cdef7d4bab8bd675299573,Centrify,network_hosting,identity and mobile device management,37.390918,-122.080843,2004,160.0
1055,52cdef7d4bab8bd675299583,Integrate,software,Marketing Software and Media Services,40.7481039,-74.0353787,2010,120.0
1060,52cdef7d4bab8bd67529958e,Pioco,mobile,,31.222222,121.475,2006,54.0
1063,52cdef7d4bab8bd6752995b1,NexPlanar,semiconductor,CMP pad Producer,45.546481,-122.9021288,2008,
1066,52cdef7d4bab8bd6752995ba,ZManda,software,backup and recovery software,37.3725243,-122.035963,2005,
1071,52cdef7d4bab8bd6752995c7,Nextiva,enterprise,Business VoIP Phone Systems,33.555878,-111.8963228,2005,200.0
1073,52cdef7d4bab8bd6752995ea,Synchronica,mobile,Mobile Email Synchronization,52.494722,13.398514,2004,
1074,52cdef7d4bab8bd6752995ea,Synchronica,mobile,Mobile Email Synchronization,35.868807,-78.615986,2004,
1075,52cdef7d4bab8bd6752995ea,Synchronica,mobile,Mobile Email Synchronization,37.275604,-121.952034,2004,
1077,52cdef7d4bab8bd6752995ef,Palo Alto Networks,security,Hardware Firewalls,37.410439,-122.016125,2005,
1078,52cdef7d4bab8bd6752995f1,Envysion,software,web-based video management software,39.97764,-105.13114,2006,
1079,52cdef7d4bab8bd675299607,BitWave,mobile,,42.616152,-71.325869,2004,
1080,52cdef7d4bab8bd675299638,KoolSpan,security,Chip-based security,38.987594,-77.0974791,2003,
1084,52cdef7d4bab8bd675299686,Lyft,software,Your friend with a car,37.7899027,-122.4007846,2007,180.0
1086,52cdef7d4bab8bd67529969d,Demandbase,analytics,,37.796843,-122.400346,2006,80.0
1087,52cdef7d4bab8bd6752996ad,Jumptap,mobile,Mobile advertising solutions,42.368633,-71.075305,2005,
1088,52cdef7d4bab8bd6752996ad,Jumptap,mobile,Mobile advertising solutions,40.751478,-73.980305,2005,
1091,52cdef7d4bab8bd6752996bc,Popego,advertising,,37.778687,-122.421242,2007,120.0
1092,52cdef7d4bab8bd6752996cd,Spotmau Corporation,software,,29.985528,-95.3082988,2006,70.0
1093,52cdef7d4bab8bd6752996d1,Thomson Reuters,public_relations,Intelligent Information Provider,40.7564318,-73.9871847,2008,50000.0
1095,52cdef7d4bab8bd6752996fe,Yammer,enterprise,Enterprise Social Network,37.776246,-122.4179223,2008,400.0
1097,52cdef7d4bab8bd675299701,GoPlanit,web,online travel planning,37.791576,-122.399363,2007,
1098,52cdef7d4bab8bd67529970d,PostPath,web,email and collaboration servers,37.390501,-122.081151,2003,
1099,52cdef7d4bab8bd67529973c,TRUECar,transportation,Car Buying Marketplace,34.0152942,-118.4965479,2005,303.0
1101,52cdef7d4bab8bd67529973c,TRUECar,transportation,Car Buying Marketplace,34.012985,-118.49567,2005,303.0
1102,52cdef7d4bab8bd67529973c,TRUECar,transportation,Car Buying Marketplace,30.3096936,-97.9390133,2005,303.0
1103,52cdef7d4bab8bd67529973c,TRUECar,transportation,Car Buying Marketplace,34.4405218,-119.7445783,2005,303.0
1104,52cdef7d4bab8bd675299782,Intela,advertising,Global Performance Marketing,40.058448,-105.278785,2006,70.0
1105,52cdef7d4bab8bd675299782,Intela,advertising,Global Performance Marketing,51.5139758,-0.1230127,2006,70.0
1107,52cdef7d4bab8bd675299785,Picateers,web,,37.5574,-122.301914,2005,
1108,52cdef7d4bab8bd675299786,SailPoint Technologies,enterprise,identity governance software,30.355703,-97.797117,2005,
1110,52cdef7d4bab8bd6752997bf,Big Stage,web,3d imaging,34.111471,-118.174878,2008,
1112,52cdef7d4bab8bd6752997d4,Mimosa Systems,software,Data Archiving Software,37.379684,-121.97514,2003,
1113,52cdef7d4bab8bd6752997d4,Mimosa Systems,software,Data Archiving Software,45.343475,-75.7186146,2003,
1114,52cdef7d4bab8bd6752997d4,Mimosa Systems,software,Data Archiving Software,51.461674,-0.93391,2003,
1115,52cdef7d4bab8bd6752997d4,Mimosa Systems,software,Data Archiving Software,48.8386994,2.2376715,2003,
1116,52cdef7d4bab8bd6752997d4,Mimosa Systems,software,Data Archiving Software,48.1520662,11.6823188,2003,
1121,52cdef7d4bab8bd6752997fa,Lolapps,web,,37.7870923,-122.3999719,2008,65.0
1122,52cdef7d4bab8bd6752997fc,Stylesight,fashion,SaaS Trend Forecasting Platform,40.730763,-74.000827,2004,200.0
1123,52cdef7d4bab8bd675299810,Connectbeam,software,software applications,37.401818,-122.050565,2005,
1124,52cdef7d4bab8bd675299836,Taglocity,enterprise,,49.2812342,-123.1043395,2007,
1125,52cdef7d4bab8bd67529983a,Helpstream,web,,37.418262,-122.087859,2004,
1127,52cdef7d4bab8bd67529984e,Chegg,education,Online textbook rental,37.352313,-121.967982,2005,
1128,52cdef7d4bab8bd67529984f,Xactly Corp,analytics,Incent Right.,37.334738,-121.891516,2005,
1129,52cdef7d4bab8bd67529984f,Xactly Corp,analytics,Incent Right.,42.355077,-71.056928,2005,
1132,52cdef7d4bab8bd675299853,Hangout Industries,games_video,,42.352835,-71.0609612,2005,
1134,52cdef7d4bab8bd6752998bd,J-Curve Technologies,other,,33.451235,-111.99253,2006,100.0
1135,52cdef7d4bab8bd6752998be,Hyper9,software,Virtual Infrastructure Management,30.387353,-97.753163,2006,
1136,52cdef7d4bab8bd6752998bf,Koolanoo Group,web,China Internet & New Media Investments,39.905556,116.395833,2005,280.0
1138,52cdef7d4bab8bd6752998c8,IntelePeer,enterprise,Cloud-based communication services,37.536394,-122.326141,2003,
1139,52cdef7d4bab8bd6752998c8,IntelePeer,enterprise,Cloud-based communication services,39.755363,-105.008551,2003,
1140,52cdef7d4bab8bd6752998cb,RoyaltyShare,public_relations,,32.893366,-117.200035,2005,
1142,52cdef7d4bab8bd6752998d2,InstallFree,software,,41.073034,-73.550452,2006,
1144,52cdef7d4bab8bd6752998fd,Centrify,network_hosting,identity and mobile device management,37.390918,-122.080843,2004,160.0
1145,52cdef7d4bab8bd67529990d,Integrate,software,Marketing Software and Media Services,40.7481039,-74.0353787,2010,120.0
1150,52cdef7d4bab8bd675299918,Pioco,mobile,,31.222222,121.475,2006,54.0
1153,52cdef7d4bab8bd67529993b,NexPlanar,semiconductor,CMP pad Producer,45.546481,-122.9021288,2008,
1156,52cdef7d4bab8bd675299944,ZManda,software,backup and recovery software,37.3725243,-122.035963,2005,
1161,52cdef7d4bab8bd675299951,Nextiva,enterprise,Business VoIP Phone Systems,33.555878,-111.8963228,2005,200.0
1163,52cdef7d4bab8bd675299974,Synchronica,mobile,Mobile Email Synchronization,52.494722,13.398514,2004,
1164,52cdef7d4bab8bd675299974,Synchronica,mobile,Mobile Email Synchronization,35.868807,-78.615986,2004,
1165,52cdef7d4bab8bd675299974,Synchronica,mobile,Mobile Email Synchronization,37.275604,-121.952034,2004,
1167,52cdef7d4bab8bd675299979,Palo Alto Networks,security,Hardware Firewalls,37.410439,-122.016125,2005,
1168,52cdef7d4bab8bd67529997b,Envysion,software,web-based video management software,39.97764,-105.13114,2006,
1169,52cdef7d4bab8bd675299991,BitWave,mobile,,42.616152,-71.325869,2004,
1170,52cdef7d4bab8bd6752999c2,KoolSpan,security,Chip-based security,38.987594,-77.0974791,2003,
1174,52cdef7d4bab8bd675299a10,Lyft,software,Your friend with a car,37.7899027,-122.4007846,2007,180.0
1176,52cdef7d4bab8bd675299a27,Demandbase,analytics,,37.796843,-122.400346,2006,80.0
1177,52cdef7d4bab8bd675299a37,Jumptap,mobile,Mobile advertising solutions,42.368633,-71.075305,2005,
1178,52cdef7d4bab8bd675299a37,Jumptap,mobile,Mobile advertising solutions,40.751478,-73.980305,2005,
1181,52cdef7d4bab8bd675299a46,Popego,advertising,,37.778687,-122.421242,2007,120.0
1182,52cdef7d4bab8bd675299a57,Spotmau Corporation,software,,29.985528,-95.3082988,2006,70.0
1183,52cdef7d4bab8bd675299a5b,Thomson Reuters,public_relations,Intelligent Information Provider,40.7564318,-73.9871847,2008,50000.0
1185,52cdef7d4bab8bd675299a88,Yammer,enterprise,Enterprise Social Network,37.776246,-122.4179223,2008,400.0
1187,52cdef7d4bab8bd675299a8b,GoPlanit,web,online travel planning,37.791576,-122.399363,2007,
1188,52cdef7d4bab8bd675299a97,PostPath,web,email and collaboration servers,37.390501,-122.081151,2003,
1189,52cdef7d4bab8bd675299ac6,TRUECar,transportation,Car Buying Marketplace,34.0152942,-118.4965479,2005,303.0
1191,52cdef7d4bab8bd675299ac6,TRUECar,transportation,Car Buying Marketplace,34.012985,-118.49567,2005,303.0
1192,52cdef7d4bab8bd675299ac6,TRUECar,transportation,Car Buying Marketplace,30.3096936,-97.9390133,2005,303.0
1193,52cdef7d4bab8bd675299ac6,TRUECar,transportation,Car Buying Marketplace,34.4405218,-119.7445783,2005,303.0
1194,52cdef7d4bab8bd675299b0c,Intela,advertising,Global Performance Marketing,40.058448,-105.278785,2006,70.0
1195,52cdef7d4bab8bd675299b0c,Intela,advertising,Global Performance Marketing,51.5139758,-0.1230127,2006,70.0
1197,52cdef7d4bab8bd675299b0f,Picateers,web,,37.5574,-122.301914,2005,
1198,52cdef7d4bab8bd675299b10,SailPoint Technologies,enterprise,identity governance software,30.355703,-97.797117,2005,
1200,52cdef7d4bab8bd675299b49,Big Stage,web,3d imaging,34.111471,-118.174878,2008,
1202,52cdef7d4bab8bd675299b5e,Mimosa Systems,software,Data Archiving Software,37.379684,-121.97514,2003,
1203,52cdef7d4bab8bd675299b5e,Mimosa Systems,software,Data Archiving Software,45.343475,-75.7186146,2003,
1204,52cdef7d4bab8bd675299b5e,Mimosa Systems,software,Data Archiving Software,51.461674,-0.93391,2003,
1205,52cdef7d4bab8bd675299b5e,Mimosa Systems,software,Data Archiving Software,48.8386994,2.2376715,2003,
1206,52cdef7d4bab8bd675299b5e,Mimosa Systems,software,Data Archiving Software,48.1520662,11.6823188,2003,
1211,52cdef7d4bab8bd675299b84,Lolapps,web,,37.7870923,-122.3999719,2008,65.0
1212,52cdef7d4bab8bd675299b86,Stylesight,fashion,SaaS Trend Forecasting Platform,40.730763,-74.000827,2004,200.0
1213,52cdef7d4bab8bd675299b9a,Connectbeam,software,software applications,37.401818,-122.050565,2005,
1214,52cdef7d4bab8bd675299bc0,Taglocity,enterprise,,49.2812342,-123.1043395,2007,
1215,52cdef7d4bab8bd675299bc4,Helpstream,web,,37.418262,-122.087859,2004,
1217,52cdef7d4bab8bd675299bd8,Chegg,education,Online textbook rental,37.352313,-121.967982,2005,
1218,52cdef7d4bab8bd675299bd9,Xactly Corp,analytics,Incent Right.,37.334738,-121.891516,2005,
1219,52cdef7d4bab8bd675299bd9,Xactly Corp,analytics,Incent Right.,42.355077,-71.056928,2005,
1222,52cdef7d4bab8bd675299bdd,Hangout Industries,games_video,,42.352835,-71.0609612,2005,
1224,52cdef7d4bab8bd675299c2b,FetchBack,advertising,,33.426418,-111.9396,2007,100.0
1225,52cdef7d4bab8bd675299c3f,ConSentry Networks,network_hosting,Intelligent User & App Control Switch,37.407311,-121.898605,2003,80.0
1227,52cdef7d4bab8bd675299c75,inTALK,mobile,,33.407392,-111.892085,2007,100.0
1229,52cdef7d4bab8bd675299cbf,Brightstorm,games_video,Video Tutorial Site,37.804619,-122.371203,2008,
1230,52cdef7d4bab8bd675299cc0,Trizeon,advertising,,17.498081,78.389911,2004,60.0
1231,52cdef7d4bab8bd675299cc1,Jobmixi,search,,17.498081,78.389911,2004,55.0
1232,52cdef7d4bab8bd675299d16,RiseSmart,enterprise,Enterprise Career Management,37.383526,-122.012808,2007,100.0
1233,52cdef7d4bab8bd675299d19,Vertica Systems,software,data management solutions,42.543932,-71.278698,2005,
1234,52cdef7d4bab8bd675299d28,Exaprotect,security,Enterprise Security Management,37.419347,-122.089639,2004,
1235,52cdef7d4bab8bd675299d49,Facebookster,public_relations,,37.506206,-121.949247,2003,124.0
1236,52cdef7d4bab8bd675299d4b,CityVoter,web,,42.358184,-71.106389,2005,
1239,52cdef7d4bab8bd675299d5d,Groupon,web,Local Daily Deals,41.8965162,-87.643622,2008,10000.0
1243,52cdef7d4bab8bd675299d68,Heatwave Interactive,games_video,,30.297775,-97.762921,2008,
1244,52cdef7d4bab8bd675299d6f,OneSpot,advertising,Content Advertising,30.2686147,-97.7404872,2005,
1245,52cdef7d4bab8bd675299d74,CoreTrace,security,Computer & Network Security,30.392018,-97.848345,2007,
1246,52cdef7d4bab8bd675299d7c,PicApp,web,,37.79402,-122.4031242,2008,
1247,52cdef7d4bab8bd675299d9f,metaio,software,,48.160718,11.553725,2003,65.0
1248,52cdef7d4bab8bd675299d9f,metaio,software,,37.590339,-122.341715,2003,65.0
1249,52cdef7d4bab8bd675299da3,DreamBox Learning,education,Education Software,47.6130554,-122.1967108,2004,
1250,52cdef7d4bab8bd675299dae,Navara,software,,52.126616,5.038078,2012,80.0
1252,52cdef7d4bab8bd675299daf,Bloglovin,web,RSS Reader,40.740308,-74.007199,2008,
1253,52cdef7d4bab8bd675299dbd,Finsphere,mobile,Mobile Identity Protection,47.614761,-122.198904,2007,
1254,52cdef7d4bab8bd675299dcd,Smule,music,iPhone apps and games,37.779624,-122.391236,2008,55.0
1257,52cdef7d4bab8bd675299e11,InPage Incorporated,advertising,,35.2267,-80.8434,2006,100.0
1259,52cdef7d4bab8bd675299e68,MyShape,ecommerce,User Personalized Stores,34.141876,-118.132377,2003,
1260,52cdef7d4bab8bd675299e77,FamilyLink,web,Tools to connect families,40.250096,-111.643179,2006,60.0
1261,52cdef7d4bab8bd675299e99,One Season,games_video,Online Sports Entertainment,37.775196,-122.419204,2007,
1262,52cdef7d4bab8bd675299e9b,Avaak,mobile,wireless video technology,32.897274,-117.201076,2004,
1264,52cdef7d4bab8bd675299ef0,Sailthru,public_relations,Customer Data & Communication Platform,40.738143,-74.008159,2008,85.0
1266,52cdef7d4bab8bd675299f04,eriQoo,search,Service and product search,37.4942858,-121.9814354,2006,96.0
1268,52cdef7d4bab8bd675299f10,Poptent,photo_video,Crowdsourced Video Production,40.0018743,-75.2747196,2007,60.0
1270,52cdef7d4bab8bd675299f11,Kiva Systems,hardware,,42.492256,-71.134549,2003,
1271,52cdef7d4bab8bd675299f17,Meteor Games,games_video,Social Game Development Studio,34.09316,-118.378335,2007,70.0
1272,52cdef7d4bab8bd675299f1c,Nexenta Systems,software,Global Leader in Software-Defined Storag,37.444098,-122.161287,2005,200.0
1274,52cdef7d4bab8bd675299f34,SolFocus,cleantech,solar energy,37.3987372,-122.0497918,2005,
1276,52cdef7d4bab8bd675299f4f,Vinfolio,ecommerce,Wine Selection and Software,37.763293,-122.410752,2003,68.0
1277,52cdef7d4bab8bd675299f90,DubMeNow,mobile,Mobile and  Virtual Business Cards,38.916336,-77.230488,2008,
1278,52cdef7d4bab8bd675299f94,TVGla,web,Digital Marketing Agency,33.988687,-118.439532,2007,55.0
1279,52cdef7d4bab8bd675299fb0,Cloudera,enterprise,Enterprise support for Apache Hadoop,37.5783417,-122.3497546,2008,230.0
1280,52cdef7d4bab8bd675299fb1,Vuclip,photo_video,Video on any mobile,37.406027,-121.918642,2008,100.0
1281,52cdef7d4bab8bd675299fb1,Vuclip,photo_video,Video on any mobile,28.635308,77.22496,2008,100.0
1282,52cdef7d4bab8bd675299fb1,Vuclip,photo_video,Video on any mobile,19.0759837,72.8776559,2008,100.0
1284,52cdef7d4bab8bd675299fb8,ResearchGate,social,The professional network for scientists.,52.5308516,13.3842605,2008,74.0
1285,52cdef7d4bab8bd675299fb9,Booyah,games_video,"Real-World Social Gaming, iPhone App",37.420728,-122.2103414,2008,
1290,52cdef7d4bab8bd675299fd1,Apigee,enterprise,"API Management, Control & Analytics",37.369445,-121.967223,2004,65.0
1292,52cdef7d4bab8bd675299fe9,SolarCity,cleantech,Solar Panel Installation and Financing ,37.563039,-122.277639,2006,
1294,52cdef7d4bab8bd67529a005,Railsware,software,,45.494668,-122.827044,2006,60.0
1295,52cdef7d4bab8bd67529a013,ReverbNation,software,Online musician tools,36.002893,-78.904075,2006,85.0
1296,52cdef7d4bab8bd67529a013,ReverbNation,software,Online musician tools,40.718888,-74.001169,2006,85.0
1299,52cdef7d4bab8bd67529a078,Syndiant,semiconductor,handheld device to large screen,32.996571,-96.7562,2004,
1300,52cdef7d4bab8bd67529a08a,isocket,advertising,Direct ad sales platform,37.55909,-122.321836,2009,
1302,52cdef7d4bab8bd67529a0b8,Games2Win,games_video,,18.9742904,72.8127265,2005,
1305,52cdef7d4bab8bd67529a0ec,A10 Networks,network_hosting,Application Delivery,37.391198,-121.93393,2004,500.0
1307,52cdef7d4bab8bd67529a127,BrightScope,finance,Financial Data Firm,32.873081,-117.2117395,2008,70.0
1308,52cdef7d4bab8bd67529a13f,Ozone Media Solutions,web,,19.017656,72.856178,2006,
1309,52cdef7d4bab8bd67529a13f,Ozone Media Solutions,web,,12.971606,77.594376,2006,
1310,52cdef7d4bab8bd67529a157,Model Metrics,enterprise,Cloud Computing Services & Solutions,41.8961282,-87.6371628,2003,120.0
1311,52cdef7d4bab8bd67529a15a,Vox Media,news,Premium online publisher,38.898713,-77.022422,2003,
1312,52cdef7d4bab8bd67529a16a,Tekriti Software,software,,28.435018,77.003186,2005,200.0
1315,52cdef7d4bab8bd67529a174,Xignite,finance,On-Demand Financial Market Data,37.560236,-122.286752,2003,
1316,52cdef7d4bab8bd67529a175,RadarFind,mobile,Real-time Location System (RTLS),35.8455929,-78.8012482,2003,
1317,52cdef7d4bab8bd67529a198,Awdio,games_video,,48.887534,2.356288,2007,
1322,52cdef7d4bab8bd67529a1b6,SinoTech Group,advertising,Digital Marketing Company,-33.868778,151.204586,2007,160.0
1324,52cdef7d4bab8bd67529a1bd,WJT Global Solutions,consulting,,40.74931,-73.821321,2008,2000.0
1325,52cdef7d4bab8bd67529a1bd,WJT Global Solutions,consulting,,-33.42536,-70.566466,2008,2000.0
1326,52cdef7d4bab8bd67529a1bd,WJT Global Solutions,consulting,,22.572646,88.363895,2008,2000.0
1327,52cdef7d4bab8bd67529a1bd,WJT Global Solutions,consulting,,31.224353,121.475916,2008,2000.0
1328,52cdef7d4bab8bd67529a1bd,WJT Global Solutions,consulting,,28.635308,77.22496,2008,2000.0
1329,52cdef7d4bab8bd67529a1d5,SOASTA,enterprise,Cloud-Based Testing ,37.418616,-122.087417,2006,100.0
1331,52cdef7d4bab8bd67529a1f1,Open-Xchange,software,Software for SaaS Provider ,41.0662835,-73.8625452,2005,100.0
1332,52cdef7d4bab8bd67529a1f1,Open-Xchange,software,Software for SaaS Provider ,51.029415,7.850863,2005,100.0
1333,52cdef7d4bab8bd67529a1f1,Open-Xchange,software,Software for SaaS Provider ,49.4605351,11.0823953,2005,100.0
1334,52cdef7d4bab8bd67529a1f9,JR Language Translation Services,other,Translationa and Localization Agency,43.197477,-77.49896,2006,100.0
1335,52cdef7d4bab8bd67529a20b,Feedbooks,web,Ebook publishing and distribution,48.883329,2.3679195,2007,
1336,52cdef7d4bab8bd67529a214,NFi Studios,advertising,,28.542896,-81.378805,2004,
1337,52cdef7d4bab8bd67529a23b,Clearwire,mobile,wireless ISP,30.6324797,-86.9843446,2003,
1338,52cdef7d4bab8bd67529a23f,SPIL GAMES,games_video,Online Gaming Portal,52.220726,5.198824,2004,300.0
1341,52cdef7d4bab8bd67529a25f,TRX Systems,software,Personnel Tracking Systems,38.9916581,-76.879257,2004,
1342,52cdef7e4bab8bd67529a264,GetBack,web,,34.0342337,-118.4536137,2007,
1343,52cdef7e4bab8bd67529a290,Verismo Networks,games_video,,37.3874345,-122.051793,2003,
1345,52cdef7e4bab8bd67529a2aa,Jaincotech,other,,41.38778,-81.463538,2004,300.0
1346,52cdef7e4bab8bd67529a2aa,Jaincotech,other,,51.5350682,-0.1416596,2004,300.0
1347,52cdef7e4bab8bd67529a2bb,GlobalCrypto,software,,33.776834,-84.3895875,2006,
1350,52cdef7e4bab8bd67529a2e8,DeepDyve,web,Research Search Engine,37.377787,-122.029217,2005,
1351,52cdef7e4bab8bd67529a2f3,Automatic,advertising,Digital Advertising Agency,33.65042,-117.747055,2008,65.0
1352,52cdef7e4bab8bd67529a2f7,Planet Metrics,cleantech,,37.628328,-122.420814,2007,
1354,52cdef7e4bab8bd67529a2fc,Populis,web,Online Media Company,41.8663418,12.4972454,2004,140.0
1355,52cdef7e4bab8bd67529a315,One True Media,games_video,Online editing and sharing,37.485824,-122.212095,2005,
1356,52cdef7e4bab8bd67529a323,Trustpilot,web,Online review service,55.6739617,12.5605372,2007,100.0
1357,52cdef7e4bab8bd67529a327,Collabor,software,The Customer Collaboration Company,42.3389044,-71.590103,2005,60.0
1358,52cdef7e4bab8bd67529a336,PeerApp,software,Intelligent Media Caching,42.3127142,-71.2252014,2004,
1359,52cdef7e4bab8bd67529a358,Decho,web,,47.6024156,-122.3326145,2008,150.0
1360,52cdef7e4bab8bd67529a373,Clearleap,software,Television and Online Video IP Delivery,34.070164,-84.058708,2007,75.0
1362,52cdef7e4bab8bd67529a388,Datacastle,enterprise,Enterprise data protection and backup,47.651315,-122.3498959,2005,
1363,52cdef7e4bab8bd67529a390,Imagine Communications,software,digital video processing,32.9388917,-117.2398594,2005,
1364,52cdef7e4bab8bd67529a3ca,Twilio,enterprise,Cloud Communications API,37.7898499,-122.4006831,2007,100.0
1365,52cdef7e4bab8bd67529a3cd,Behind the Burner,web,,40.753918,-73.981237,2008,
1368,52cdef7e4bab8bd67529a3ee,Gemalto,hardware,,52.336117,4.887641,2006,12000.0
1369,52cdef7e4bab8bd67529a419,MediaMath,advertising,Demand Side Platform,40.756799,-73.9763479,2007,125.0
1370,52cdef7e4bab8bd67529a430,IsayBlog!,web,Italian blog,41.8924033,12.4764711,2008,154.0
1372,52cdef7e4bab8bd67529a44a,Zuberance,advertising,,37.506475,-122.259932,2007,
1373,52cdef7e4bab8bd67529a469,WiChorus,mobile,platforms for 4G networks,37.409096,-121.943191,2005,
1375,52cdef7e4bab8bd67529a486,LogMeIn,software,,42.486535,-71.115413,2003,
1376,52cdef7e4bab8bd67529a486,LogMeIn,software,,52.3710089,4.9277653,2003,
1377,52cdef7e4bab8bd67529a497,ZeroTurnaround,software,Productivity tools for Java developers,58.3820542,26.731054,2007,70.0
1382,52cdef7e4bab8bd67529a4b6,Synthesio,software,Global Social Media Listening,40.7431836,-73.9935011,2006,75.0
1387,52cdef7e4bab8bd67529a525,Deal4Loans,web,Loan and credit card aggregator of India,28.4404308,77.0789194,2007,60.0
1388,52cdef7e4bab8bd67529a530,Bit9,security,Advanced Endpoint Protection,42.388133,-71.26322,2003,
1390,52cdef7e4bab8bd67529a53f,Hi-Midia,other,,-22.9534377,-43.1698887,2005,65.0
1392,52cdef7e4bab8bd67529a58c,Canpages,search,Canadian Local Search Company,49.2599284,-122.9153695,2006,400.0
1394,52cdef7e4bab8bd67529a5be,Refinery29,fashion,,40.7277189,-73.9508211,2004,
1395,52cdef7e4bab8bd67529a5c0,OwnerIQ,advertising,Path-to-purchase media,42.3472851,-71.0499948,2006,
1396,52cdef7e4bab8bd67529a5c0,OwnerIQ,advertising,Path-to-purchase media,47.852479,-122.218976,2006,
1398,52cdef7e4bab8bd67529a5ff,mFoundry,mobile,Mobile Banking and Payments,37.862592,-122.493561,2004,160.0
1402,52cdef7e4bab8bd67529a62b,CyberSynchs,mobile,Universal Data Synchronization Solution,40.745534,-73.990033,2008,100.0
1403,52cdef7e4bab8bd67529a642,CampusEAI,enterprise,,41.5139193,-81.6747295,2003,200.0
1404,52cdef7e4bab8bd67529a642,CampusEAI,enterprise,,40.7350747,-74.1739057,2003,200.0
1405,52cdef7e4bab8bd67529a642,CampusEAI,enterprise,,28.46385,77.017838,2003,200.0
1406,52cdef7e4bab8bd67529a663,Fishlabs,mobile,Mobile games for avid gamers on the go!,53.5845505,10.015551,2004,65.0
1407,52cdef7e4bab8bd67529a66b,Sojern,travel,Travel Data & Media Company,41.238038,-96.183033,2007,75.0
1408,52cdef7e4bab8bd67529a676,LeapFish,web,Real Time Search Engine,37.700863,-121.8794206,2008,110.0
1409,52cdef7e4bab8bd67529a679,DotNext,ecommerce,,37.7008794,-121.8794209,2006,100.0
1410,52cdef7e4bab8bd67529a696,Ridemakerz,ecommerce,Online Toy Story,38.691084,-90.354532,2006,
1411,52cdef7e4bab8bd67529a6a6,Tableau Software,software,,47.6504518,-122.3545086,2003,92.0
1412,52cdef7e4bab8bd67529a6a9,Apprenda,enterprise,The Leading Enterprise PaaS,42.856515,-73.782775,2007,51.0
1413,52cdef7e4bab8bd67529a6b6,cFares,search,Travel search engine,37.5383063,-122.2523918,2005,
1414,52cdef7e4bab8bd67529a70f,PrestaShop,software,Open Source E-Commerce Software,48.8687217,2.3593849,2007,80.0
1416,52cdef7e4bab8bd67529a71c,Appcelerator,enterprise,Mobile Enterprise Platform,37.3909185,-122.0808426,2006,150.0
1418,52cdef7e4bab8bd67529a721,Silver Tail Systems,analytics,Business Logic Abuse Fraud Protection ,37.4280877,-122.143368,2008,90.0
1420,52cdef7e4bab8bd67529a723,Modelinia,web,supermodel hub,40.739867,-73.990024,2008,
1421,52cdef7e4bab8bd67529a73a,Jolicloud,enterprise,Cloud management platform,48.8566667,2.3509871,2009,
1422,52cdef7e4bab8bd67529a73f,Altierre,mobile,Pricing Software,37.3968262,-121.8957166,2003,
1423,52cdef7e4bab8bd67529a750,Logic Voice,messaging,Business Telecommunication Solution,40.6607436,-73.7709398,2008,61.0
1426,52cdef7e4bab8bd67529a771,Agilence,enterprise,Retail Loss Prevention Software,39.9443552,-75.1257381,2006,
1427,52cdef7e4bab8bd67529a777,Quantance,semiconductor,semiconductors for mobile phones,37.536402,-122.325129,2006,
1428,52cdef7e4bab8bd67529a777,Quantance,semiconductor,semiconductors for mobile phones,45.530364,-122.841627,2006,
1429,52cdef7e4bab8bd67529a77a,Veeam Software,software,Solutions for VMware and Hyper-V,40.088052,-83.088566,2006,1500.0
1447,52cdef7e4bab8bd67529a77c,Fonality,enterprise,,33.9874429,-118.3846632,2003,
1449,52cdef7e4bab8bd67529a78c,Allegiance,software,The Power to Engage,40.554923,-111.9032625,2005,
1452,52cdef7e4bab8bd67529a7cf,SecondMarket,finance,Online Marketplace,40.705439,-74.012822,2004,140.0
1454,52cdef7e4bab8bd67529a7d7,SenSage,security,Data Warehousing Solutions,37.785655,-122.398393,2004,
1459,52cdef7e4bab8bd67529a81a,BlueKai,advertising,Data Activation System,40.760955,-73.968441,2007,142.0
1462,52cdef7e4bab8bd67529a81b,Shutterstock,public_relations,Stock Photography Marketplace,40.7051551,-74.0115175,2003,220.0
1463,52cdef7e4bab8bd67529a821,Manthan Systems,analytics,Global Retail Solution,12.9708947,77.5976747,2003,
1465,52cdef7e4bab8bd67529a821,Manthan Systems,analytics,Global Retail Solution,42.062816,-88.034017,2003,
1467,52cdef7e4bab8bd67529a835,RideCharge,mobile,Mobile transportation solutions,38.814329,-77.038605,2007,75.0
1470,52cdef7e4bab8bd67529a858,Smart Online,software,,35.8772527,-78.8392427,2005,52.0
1471,52cdef7e4bab8bd67529a861,QualSoft Services,software,,40.632734,-73.720916,2004,100.0
1472,52cdef7e4bab8bd67529a864,Rudder,web,Personal Finance Monitoring,29.739322,-95.444747,2006,
1473,52cdef7e4bab8bd67529a876,Proclivity Systems,software,,40.738954,-73.992,2006,
1474,52cdef7e4bab8bd67529a87a,mPay Gateway,software,,44.98983,-93.2743,2004,
1475,52cdef7e4bab8bd67529a886,Vantos,enterprise,Enterprise Investigation,47.6018054,-122.3342382,2003,
1476,52cdef7e4bab8bd67529a889,Hanger Network In-Home Media,advertising,EcoHanger Delivery Programs ,40.769375,-73.982635,2005,
1477,52cdef7e4bab8bd67529a88a,i2we,web,social internet applications,37.8665325,-122.2634131,2007,
1478,52cdef7e4bab8bd67529a88e,Plusmo,mobile,mobile widget service,37.400367,-121.985711,2006,
1479,52cdef7e4bab8bd67529a88f,FireEye,security,Next Generation Threat Protection,37.4102801,-121.9210492,2004,320.0
1482,52cdef7e4bab8bd67529a8aa,mBeat Media,mobile,SMS mobile content aggregation,38.94794,-77.347961,2008,
1484,52cdef7e4bab8bd67529a8b8,RGB Networks,games_video,network video processing solutions,37.4123706,-122.0216271,2003,125.0
1485,52cdef7e4bab8bd67529a8cc,Elemental Technologies,enterprise,GPU-accelerated video processing,45.519179,-122.677001,2006,130.0
1486,52cdef7e4bab8bd67529a8da,LawCrossing,web,Legal Jobs Careers Employment,34.1428388,-118.1323783,2003,100.0
1487,52cdef7e4bab8bd67529a8e1,Conviva,software,Video Stream Optimization,37.552806,-122.2916021,2006,
1488,52cdef7e4bab8bd67529a8e2,SageQuest,mobile,fleet management solutions,41.396813,-81.456144,2003,
1489,52cdef7e4bab8bd67529a8ee,SeeSaw Networks,advertising,out-of-home media network,37.791564,-122.399981,2005,
1490,52cdef7e4bab8bd67529a8f3,IMedExchange,web,Social network for doctors,47.6136485,-122.3371174,2007,
1491,52cdef7e4bab8bd67529a8f4,Provade,enterprise,Enterprise Vendor Management System,37.560155,-122.285588,2004,
1492,52cdef7e4bab8bd67529a8fc,BeliefNetworks,software,,32.783932,-79.999591,2007,
1493,52cdef7e4bab8bd67529a8fc,BeliefNetworks,software,,40.746944,-73.983926,2007,
1494,52cdef7e4bab8bd67529a8fd,Robotgalaxy,games_video,Online Robot Community,40.737216,-73.990947,2006,
1495,52cdef7e4bab8bd67529a90e,Klout,social,Measures Online Influence,34.0497638,-118.2474287,2008,79.0
1496,52cdef7e4bab8bd67529a925,Quanterix,biotech,Healthcare analysis,42.3663257,-71.0917952,2007,
1497,52cdef7e4bab8bd67529a951,Virident Systems,enterprise,server and architectural solutions,37.421692,-121.894156,2006,
1498,52cdef7e4bab8bd67529a953,Sonopia,mobile,Mobile community,37.477944,-122.151234,2005,
1499,52cdef7e4bab8bd67529a955,3Leaf,software,server virtualization solutions,37.381034,-121.971487,2004,
1502,52cdef7e4bab8bd67529a97e,Packet Design,software,,37.3821368,-121.970505,2003,60.0
1503,52cdef7e4bab8bd67529a983,OSSCube Solutions,enterprise,,35.8387361,-78.8677462,2006,200.0
1508,52cdef7e4bab8bd67529a988,Central Reservations,web,Hotel Reservations Portal,53.342689,-6.2644783,2008,510.0
1510,52cdef7e4bab8bd67529a996,thoughtbot,consulting,Software Consulting Company,42.356161,-71.061649,2003,62.0
1512,52cdef7e4bab8bd67529a996,thoughtbot,consulting,Software Consulting Company,59.3335122,18.0816712,2003,62.0
1513,52cdef7e4bab8bd67529a996,thoughtbot,consulting,Software Consulting Company,40.014498,-105.278502,2003,62.0
1514,52cdef7e4bab8bd67529a996,thoughtbot,consulting,Software Consulting Company,39.952335,-75.163789,2003,62.0
1515,52cdef7e4bab8bd67529a9a8,Better Place,cleantech,,37.3949615,-122.1425097,2007,
1518,52cdef7e4bab8bd67529a9c9,WildBlue,web,,39.6478,-104.9875,2004,
1520,52cdef7e4bab8bd67529a9dd,2AdPro,web,,34.1580778,-118.6356318,2006,350.0
