,idt,name,category,description,city,country,latitude,longitude,year_founded,employees,total_money_raised
0,52cdef7c4bab8bd675297d8c,Zoho,software,Online Business Apps Suite,Pleasanton,USA,37.692934,-121.904945,2005,1600.0,$0
1,52cdef7c4bab8bd675297d8d,Digg,news,user driven social content website,San Francisco,USA,37.764726,-122.394523,2004,60.0,$45M
2,52cdef7c4bab8bd675297d8e,Facebook,social,Social network,Menlo Park,USA,37.41605,-122.151801,2004,5299.0,$2.43B
3,52cdef7c4bab8bd675297d8e,Facebook,social,Social network,Dublin,IRL,53.344104,-6.267494,2004,5299.0,$2.43B
4,52cdef7c4bab8bd675297d8e,Facebook,social,Social network,New York,USA,40.7557162,-73.9792469,2004,5299.0,$2.43B
6,52cdef7c4bab8bd675297d94,Twitter,social,Real time communication platform,San Francisco,USA,37.7768052,-122.4169244,2006,1300.0,$1.16B
7,52cdef7c4bab8bd675297d96,Gizmoz,web,Photo animation,Menlo Park,USA,37.48413,-122.169472,2003,,$18.1M
8,52cdef7c4bab8bd675297d98,Slacker,music,Music Personalization Suite,San Diego,USA,33.022176,-117.081406,2006,,$73.1M
9,52cdef7c4bab8bd675297da0,Babelgum,games_video,,London,GBR,53.344104,-6.267494,2007,,$13.2M
10,52cdef7c4bab8bd675297da4,Powerset,search,,San Francisco,USA,37.778613,-122.395289,2006,60.0,$22.5M
11,52cdef7c4bab8bd675297da7,AddThis,advertising,Content Engagement,Vienna,USA,38.926172,-77.245195,2004,120.0,$73M
12,52cdef7c4bab8bd675297da7,AddThis,advertising,Content Engagement,New York,USA,40.724604,-73.996876,2004,120.0,$73M
13,52cdef7c4bab8bd675297da7,AddThis,advertising,Content Engagement,Culver City,USA,34.0263021,-118.380954,2004,120.0,$73M
16,52cdef7c4bab8bd675297da7,AddThis,advertising,Content Engagement,Troy,USA,42.557958,-83.167884,2004,120.0,$73M
17,52cdef7c4bab8bd675297da8,OpenX,advertising,OpenX,Pasadena,USA,34.1494713,-118.1327468,2008,305.0,$75.5M
22,52cdef7c4bab8bd675297dac,Veoh,games_video,Internet TV service,San Diego,USA,32.902266,-117.20834,2004,,$69.8M
23,52cdef7c4bab8bd675297dae,Thoof,web,,Austin,USA,30.268735,-97.745209,2006,,$1M
24,52cdef7c4bab8bd675297db5,LifeLock,security,Identity theft protection,Tempe,USA,33.429859,-111.938739,2005,644.0,$178M
25,52cdef7c4bab8bd675297db6,Wesabe,web,,San Francisco,USA,37.793148,-122.402567,2005,,$4.7M
26,52cdef7c4bab8bd675297db9,Prosper,finance,p2p lending marketplace,San Francisco,USA,37.78976,-122.402524,2006,,$120M
27,52cdef7c4bab8bd675297dbb,Jajah,mobile,IP Communications Platform,Mountain View,USA,37.4233896,-122.0899512,2005,110.0,$33M
28,52cdef7c4bab8bd675297dbf,blogTV,games_video,,Ramat Gan,ISR,31.046051,34.851612,2006,,$3M
29,52cdef7c4bab8bd675297dc0,Livestream,games_video,Live streaming platform and website,New York,USA,40.726155,-73.995625,2007,120.0,$14.7M
30,52cdef7c4bab8bd675297dc1,Ustream,games_video,Live Social Video Community,San Francisco,USA,37.392936,-122.07948,2007,250.0,$60.1M
33,52cdef7c4bab8bd675297dc9,Jobster,search,job-focused vertical search engine,Seattle,USA,47.617682,-122.357242,2004,,$52.5M
34,52cdef7c4bab8bd675297dcb,Revision3,games_video,Web television network,San Francisco,USA,37.757758,-122.388243,2005,,$9M
35,52cdef7c4bab8bd675297dd0,Wize,ecommerce,eCommerce Product Reviews,Burlingame,USA,37.559287,-122.302262,2006,,$4.99M
36,52cdef7c4bab8bd675297dd3,iSkoot,mobile,Mobile VOIP service,Cambridge,USA,42.375392,-71.118487,2005,,$32.2M
37,52cdef7c4bab8bd675297dd3,iSkoot,mobile,Mobile VOIP service,San Francisco,USA,37.780134,-122.396744,2005,,$32.2M
38,52cdef7c4bab8bd675297dd7,SellABand,games_video,Fund raising for bands,46395 Bocholt,DEU,51.808933,6.553452,2006,,$5M
39,52cdef7c4bab8bd675297dd8,Funny Or Die,games_video,comedy video website,San Mateo,USA,37.421621,-122.137444,2007,,$18M
41,52cdef7c4bab8bd675297ddf,Zlio,ecommerce,,Paris,FRA,48.862825,2.381836,2005,,$4M
42,52cdef7c4bab8bd675297de0,Yelp,search,Local search and review site,San Francisco,USA,37.786183,-122.402195,2004,800.0,$90M
43,52cdef7c4bab8bd675297de4,Yapta,travel,Flight Price Tracking Service,Seattle,USA,47.599925,-122.334264,2007,,$24.3M
49,52cdef7c4bab8bd675297def,KickApps,enterprise,Social media applications and widgets,New York,USA,40.7516611,-73.9843328,2004,72.0,$32M
50,52cdef7c4bab8bd675297def,KickApps,enterprise,Social media applications and widgets,Venice,USA,33.991101,-118.468707,2004,72.0,$32M
51,52cdef7c4bab8bd675297def,KickApps,enterprise,Social media applications and widgets,San Francisco,USA,37.7891086,-122.4016144,2004,72.0,$32M
52,52cdef7c4bab8bd675297def,KickApps,enterprise,Social media applications and widgets,London,GBR,51.5094731,-0.1356235,2004,72.0,$32M
53,52cdef7c4bab8bd675297df0,RockYou,games_video,Social Gaming Company,Redwood City,USA,37.484619,-122.206893,2005,106.0,$136M
54,52cdef7c4bab8bd675297df6,Slide,public_relations,Develops self-expression widgets,San Francisco,USA,37.781427,-122.392144,2005,64.0,$78M
55,52cdef7c4bab8bd675297dfb,WeFi,mobile,Wifi Network Dicovery Tool,Fairfax,USA,37.09024,-95.712891,2006,,$10M
56,52cdef7c4bab8bd675297dfe,FeedBurner,web,,Chicago,USA,41.889474,-87.628912,2004,,$8M
57,52cdef7c4bab8bd675297dff,TheFind,ecommerce,,Mountain View,USA,37.391502,-122.073463,2006,,$26M
58,52cdef7c4bab8bd675297e00,TVtrip,web,Video guide for hotels,Paris,FRA,48.856667,2.350987,2007,,$13.8M
59,52cdef7c4bab8bd675297e02,Dogster,web,,San Francisco,USA,37.762681,-122.400909,2004,,$1M
60,52cdef7c4bab8bd675297e04,Sway,advertising,,Middleton,USA,43.090756,-89.522805,2004,,$2M
61,52cdef7c4bab8bd675297e08,Loomia,web,Recomendation engine,San Francisco,USA,37.796396,-122.404869,2004,,$7.5M
62,52cdef7c4bab8bd675297e09,Meebo,web,Organizes the web around people.	,Mountain View,USA,37.393679,-122.079017,2005,200.0,$70M
67,52cdef7c4bab8bd675297e0a,Eventbrite,web,Online event management & ticketing,San Francisco,USA,37.779507,-122.39071,2006,200.0,$140M
68,52cdef7c4bab8bd675297e0c,LinkedIn,social,Professional Social Networking,Mountain View,USA,37.423258,-122.073635,2003,4800.0,$200M
69,52cdef7c4bab8bd675297e0d,FlickIM,mobile,chat programs,Berkeley,USA,37.870744,-122.269259,2006,,$1.6M
70,52cdef7c4bab8bd675297e10,Box,network_hosting,Cloud Content Management,Los Altos,USA,37.425801,-122.143701,2005,950.0,$409M
71,52cdef7c4bab8bd675297e14,Carbonite,network_hosting,,Boston,USA,42.350571,-71.076869,2006,68.0,$66M
72,52cdef7c4bab8bd675297e15,Conduit,advertising,Platform for branded apps,Foster City,USA,37.561877,-122.325248,2005,215.0,$110M
73,52cdef7c4bab8bd675297e17,Kaboodle,ecommerce,,Sunnyvale,USA,37.382162,-122.036301,2005,,$5M
74,52cdef7c4bab8bd675297e18,GigaOM,news,,San Francisco,USA,37.775196,-122.419204,2006,75.0,$14.3M
75,52cdef7c4bab8bd675297e18,GigaOM,news,,New York,USA,40.7143528,-74.0059731,2006,75.0,$14.3M
76,52cdef7c4bab8bd675297e19,Redfin,real_estate,Online Real Estate ,Seattle,USA,47.603122,-122.333253,2004,100.0,$96.8M
77,52cdef7c4bab8bd675297e1a,Wink,search,,Mountain View,USA,37.40047,-122.072981,2004,,$6.2M
78,52cdef7c4bab8bd675297e1c,coComment,web,,Geneva,CHE,46.20381,6.139959,2006,,$5.6M
79,52cdef7c4bab8bd675297e20,Zvents,web,Local events and entertainment guides,San Mateo,USA,37.553121,-122.301534,2005,55.0,$31.2M
80,52cdef7c4bab8bd675297e23,Eventful,web,Powers the online event ecosystem ,San Diego,USA,32.872081,-117.206292,2004,60.0,$19.6M
82,52cdef7c4bab8bd675297e25,Oodle,social,aggregator of classifieds ,San Mateo,USA,37.563585,-122.324621,2004,,$23.1M
83,52cdef7c4bab8bd675297e26,oDesk,web,Online workplace,Redwood City,USA,37.479952,-122.178557,2005,120.0,$44M
84,52cdef7c4bab8bd675297e27,Simply Hired,search,Job Search Engine and Recruiting Network,Sunnyvale,USA,37.4219165,-122.0780632,2004,100.0,$22.3M
85,52cdef7c4bab8bd675297e31,Flixster,web,Movie social networking,San Francisco,USA,37.766909,-122.406676,2006,75.0,$7.18M
86,52cdef7c4bab8bd675297e3c,Bazaarvoice,software,Word of mouth marketing,Austin,USA,30.407545,-97.717667,2005,600.0,$131M
87,52cdef7c4bab8bd675297e3d,IceRocket,search,,Dallas,USA,32.781078,-96.797111,2004,,$300k
88,52cdef7c4bab8bd675297e3e,spigit,software,Purpose-built social networking platform,Pleasanton,USA,37.6637279,-121.8731805,2006,120.0,$55.6M
89,52cdef7c4bab8bd675297e3e,spigit,software,Purpose-built social networking platform,Reston,USA,38.9590083,-77.3592746,2006,120.0,$55.6M
90,52cdef7c4bab8bd675297e3e,spigit,software,Purpose-built social networking platform,London,GBR,51.5170385,-0.1394759,2006,120.0,$55.6M
91,52cdef7c4bab8bd675297e44,hi5,games_video,,San Francisco,USA,37.788668,-122.400558,2003,100.0,$52M
92,52cdef7c4bab8bd675297e46,Tagged,social,,San Francisco,USA,37.7753,-122.4186,2004,162.0,$28.7M
93,52cdef7c4bab8bd675297e4a,Indeed,web,Job Search Portal,Stamford,USA,41.038155,-73.558082,2004,,$5M
95,52cdef7c4bab8bd675297e53,Wallhogs,public_relations,,Greensburg,USA,40.30305,-79.462703,2006,52.0,$0
96,52cdef7c4bab8bd675297e55,Curse,games_video,Online games media company,San Francisco,USA,37.787092,-122.399972,2006,58.0,$12M
98,52cdef7c4bab8bd675297e58,eBuddy,messaging,Web and mobile messaging,Amsterdam,NLD,52.3640933,4.8919457,2003,90.0,€11.5M
99,52cdef7c4bab8bd675297e58,eBuddy,messaging,Web and mobile messaging,San Francisco,USA,37.787683,-122.410943,2003,90.0,€11.5M
100,52cdef7c4bab8bd675297e58,eBuddy,messaging,Web and mobile messaging,Singapore,SGP,51.500152,-0.126236,2003,90.0,€11.5M
101,52cdef7c4bab8bd675297e5b,PeerMe,games_video,,Mountain View,USA,37.419819,-122.090188,2004,,$5M
102,52cdef7c4bab8bd675297e63,Phonezoo,web,,Sunnyvale,USA,37.386376,-121.991471,2006,,$2.06M
103,52cdef7c4bab8bd675297e6b,PodTech,games_video,,Palo Alto,USA,37.408256,-122.154176,2005,,$7.5M
104,52cdef7c4bab8bd675297e6c,NowPublic,web,crowdsourcing news network,Vancouver,CAN,49.283376,-123.103986,2005,,$12M
105,52cdef7c4bab8bd675297e6e,Crackle,games_video,,Culver City,USA,34.017506,-118.401579,2004,,$1.75M
112,52cdef7c4bab8bd675297e76,Lotame,advertising,Data Management Platform,Columbia,USA,39.205649,-76.77514,2006,75.0,$34M
113,52cdef7c4bab8bd675297e76,Lotame,advertising,Data Management Platform,New York,USA,40.753631,-73.995487,2006,75.0,$34M
114,52cdef7c4bab8bd675297e76,Lotame,advertising,Data Management Platform,Cambridge,USA,42.359146,-71.056604,2006,75.0,$34M
118,52cdef7c4bab8bd675297e78,Rebtel,mobile,Talk More With Your Loved Ones,Nacka Strand,SWE,59.3167843,18.1582777,2006,75.0,$20M
120,52cdef7c4bab8bd675297e7c,Retrevo,web,Consumer Electronics Shopping Site,Sunnyvale,USA,37.368594,-122.034021,2006,,$11.9M
121,52cdef7c4bab8bd675297e81,Brightcove,enterprise,Online video platform,Cambridge,USA,42.362993,-71.086596,2004,220.0,$103M
128,52cdef7c4bab8bd675297e82,Hightail,network_hosting,securely share files & folders anywhere,Campbell,USA,37.288974,-121.935688,2004,200.0,$82.7M
129,52cdef7c4bab8bd675297e83,Nimbuzz,mobile,"Mobile messaging, VoIP and Social",Capelle a/d IJssel,NLD,51.9122575,4.5464658,2006,140.0,$25M
131,52cdef7c4bab8bd675297e84,Tangler,web,,Mountain View,USA,37.386665,-122.084171,2006,,$1.5M
132,52cdef7c4bab8bd675297e86,obopay,mobile,Mobile payment solutions,Redwood City,USA,37.524729,-122.258037,2005,,$145M
133,52cdef7c4bab8bd675297e8a,TalkPlus,web,,San Mateo,USA,37.553743,-122.300246,2004,,$5.5M
135,52cdef7c4bab8bd675297e90,PermissionTV,games_video,,Waltham,USA,42.417268,-71.258466,2005,,$9M
136,52cdef7c4bab8bd675297e92,Rocketboom,news,,New York,USA,40.797364,-73.97785,2007,,$1.5M
138,52cdef7c4bab8bd675297e9b,IMVU,web,Online 3D Community,Mountain View,USA,37.3927975,-122.0727749,2004,150.0,$29M
139,52cdef7c4bab8bd675297e9d,madKast,web,,Boulder,USA,40.010492,-105.276843,2007,,$315k
140,52cdef7c4bab8bd675297e9e,Nirvanix,enterprise,Enterprise Cloud Storage Company,San Diego,USA,32.877656,-117.210595,2007,,$70M
141,52cdef7c4bab8bd675297ea4,Webkinz,web,,Woodbridge,CAN,43.76969,-79.549577,2005,8657.0,$0
142,52cdef7c4bab8bd675297eac,Viagogo,ecommerce,Uppriced online event ticket marketplace,San Francisco,USA,51.500152,-0.126236,2005,,$65M
143,52cdef7c4bab8bd675297ead,KnockaTV,games_video,,,ISR,31.046051,34.851612,2007,,$4.5M
144,52cdef7c4bab8bd675297eb1,GreatCall,mobile,Mobile Virtual Network Operator,San Diego,USA,32.964294,-117.265191,2005,,$75.3M
145,52cdef7c4bab8bd675297eb7,Revver,games_video,User Generated Video Site,Los Angeles,USA,34.052187,-118.243425,2004,,$12.7M
146,52cdef7c4bab8bd675297eb9,Metacafe,games_video,Online Video Entertainment,San Francisco,USA,37.437328,-122.159928,2003,,$50M
147,52cdef7c4bab8bd675297ebb,ChaCha,advertising,Mobile and Online Answers Service,Carmel,USA,39.998641,-86.130347,2005,70.0,$89M
149,52cdef7c4bab8bd675297ebf,Kontera,advertising,In-Text Advertising,San Francisco,USA,37.767575,-122.411157,2003,,$36.1M
150,52cdef7c4bab8bd675297ec2,Dropbox,software,"Always have your stuff, wherever you are",San Francisco,USA,37.7909427,-122.4084994,2007,350.0,$257M
153,52cdef7c4bab8bd675297ecc,TokBox,messaging,Web video communications platform,San Francisco,USA,37.779507,-122.39071,2007,55.0,$26M
161,52cdef7c4bab8bd675297ed3,Weebly,web,Easiest Way to Create a Website,San Francisco,USA,37.795555,-122.400729,2006,70.0,$670k
162,52cdef7c4bab8bd675297ed4,Yola,web,Free Websites,San Francisco,USA,37.7911148,-122.3954751,2007,70.0,$25M
164,52cdef7c4bab8bd675297ed6,BitTorrent,web,Software and Internet Protocols,San Francisco,USA,37.790998,-122.394668,2004,80.0,$40.8M
165,52cdef7c4bab8bd675297eda,EventVue,public_relations,Social Networking for Conferences,Boulder,USA,40.010492,-105.276843,2007,,$455k
166,52cdef7c4bab8bd675297ee1,Cloudant,enterprise,NoSQL database managed service,Boston,USA,42.35892,-71.05781,2008,70.0,$18.3M
168,52cdef7c4bab8bd675297ee5,KIT digital,enterprise,video distribution solutions,New York,USA,40.751816,-73.971655,2008,200.0,$20M
172,52cdef7c4bab8bd675297ee5,KIT digital,enterprise,video distribution solutions,Stockholm,SWE,59.3369746,18.0580765,2008,200.0,$20M
176,52cdef7c4bab8bd675297ee5,KIT digital,enterprise,video distribution solutions,"Mississauga, Ontario",CAN,43.6587599,-79.5983626,2008,200.0,$20M
178,52cdef7c4bab8bd675297ee6,Kiva,finance,P2P Microfinance lending,San Francisco,USA,37.762125,-122.4147,2005,,$9M
180,52cdef7c4bab8bd675297eeb,Zopa,finance,P2P Lending,London,GBR,51.517904,-0.139947,2005,,$33.9M
181,52cdef7c4bab8bd675297ef1,BlueLithium,advertising,,San Jose,USA,37.32052,-121.948399,2004,135.0,$11.5M
182,52cdef7c4bab8bd675297ef5,MySpace,network_hosting,Social Network,Beverly Hills,USA,34.076061,-118.372953,2003,800.0,$0
183,52cdef7c4bab8bd675297f01,Vlingo,mobile,Voice enabled Virtual Assistant,Cambridge,USA,42.372912,-71.118999,2006,,$26.5M
184,52cdef7c4bab8bd675297f03,DotBlu,web,,San Francisco,USA,37.09024,-95.712891,2007,,$2.25M
186,52cdef7c4bab8bd675297f04,Covestor,finance,Investment Management Marketplace,London,GBR,51.5194201,-0.1433689,2005,,$23.9M
187,52cdef7c4bab8bd675297f05,Mevio,games_video,Independent Video Entertainment Network,San Francisco,USA,37.782263,-122.392142,2004,,$48.9M
188,52cdef7c4bab8bd675297f07,Shock Treatment Management,web,,Seattle,USA,47.610332,-122.339859,2004,,$4M
189,52cdef7c4bab8bd675297f08,NewsGator,enterprise,Social Business Software,Denver,USA,39.755092,-104.988123,2004,90.0,$39.3M
190,52cdef7c4bab8bd675297f09,Pluck,web,White-label Social Network,Austin,USA,30.268735,-97.745209,2003,,$17M
191,52cdef7c4bab8bd675297f0f,sezmi,games_video,Entertianment services company,Belmont,USA,37.524422,-122.265869,2007,,$78.6M
192,52cdef7c4bab8bd675297f0f,sezmi,games_video,Entertianment services company,Santa Monica,USA,34.017373,-118.453218,2007,,$78.6M
193,52cdef7c4bab8bd675297f0f,sezmi,games_video,Entertianment services company,Fort Lauderdale,USA,26.207024,-80.157296,2007,,$78.6M
195,52cdef7c4bab8bd675297f19,ReachLocal,advertising,,London,GBR,41.53155,-72.188584,2004,1700.0,$68.1M
196,52cdef7c4bab8bd675297f19,ReachLocal,advertising,,Toronto,CAN,43.7192415,-79.338246,2004,1700.0,$68.1M
200,52cdef7c4bab8bd675297f1a,Greystripe,advertising,Mobile advertising platform,San Francisco,USA,37.710677,-122.39323,2005,90.0,$17.6M
201,52cdef7c4bab8bd675297f1b,Trulia,search,residential real estate search engine,San Francisco,USA,37.766909,-122.406676,2004,500.0,$255M
202,52cdef7c4bab8bd675297f24,TubeMogul,advertising,Video Ad Buying Platform,Emeryville,USA,37.836957,-122.286493,2006,230.0,$53.2M
203,52cdef7c4bab8bd675297f2e,Multiply,ecommerce,,"Kebayoran Lama, Jakarta Selatan",IDN,26.400499,-80.097742,2003,,$26.6M
205,52cdef7c4bab8bd675297f35,LimeLife,news,Cross-platform digital media for women,Menlo Park,USA,37.48413,-122.169472,2004,,$20.9M
206,52cdef7c4bab8bd675297f3c,Adknowledge,advertising,,Kansas City,USA,39.044694,-94.597896,2004,300.0,$248M
207,52cdef7c4bab8bd675297f3c,Adknowledge,advertising,,New York,USA,40.748901,-73.992463,2004,300.0,$248M
208,52cdef7c4bab8bd675297f3c,Adknowledge,advertising,,San Francisco,USA,37.78866,-122.401406,2004,300.0,$248M
209,52cdef7c4bab8bd675297f3c,Adknowledge,advertising,,Fort Myers,USA,26.580095,-81.879069,2004,300.0,$248M
210,52cdef7c4bab8bd675297f3c,Adknowledge,advertising,,Toronto,CAN,43.6474554,-79.3953743,2004,300.0,$248M
211,52cdef7c4bab8bd675297f3c,Adknowledge,advertising,,"Covent Garden, London",GBR,51.5114403,-0.1229212,2004,300.0,$248M
212,52cdef7c4bab8bd675297f3c,Adknowledge,advertising,,Munich,DEU,48.1635092,11.5582609,2004,300.0,$248M
213,52cdef7c4bab8bd675297f3c,Adknowledge,advertising,,Paris,FRA,48.8506065,2.3797825,2004,300.0,$248M
214,52cdef7c4bab8bd675297f3c,Adknowledge,advertising,,Shanghai,CHN,31.222622,121.4770384,2004,300.0,$248M
215,52cdef7c4bab8bd675297f43,Yap,messaging,cloud-based speech recognition,Fort Mill,USA,35.22806,-80.856178,2006,,$12M
216,52cdef7c4bab8bd675297f45,Tizra,enterprise,,Providence,USA,41.841713,-71.399771,2006,,$850k
217,52cdef7c4bab8bd675297f48,Minglebox,web,,Bangalore,IND,12.971606,77.594376,2006,,$7M
218,52cdef7c4bab8bd675297f4a,TestFreaks,ecommerce,Product Review Experts,Stockholm,SWE,59.3339908,18.0571198,2006,,$5.8M
219,52cdef7c4bab8bd675297f4c,Quattro Wireless,advertising,Mobile ad network,Waltham,USA,42.3729,-71.248472,2006,,$28.3M
221,52cdef7c4bab8bd675297f50,BBE,advertising,Digital media company,New York,USA,40.7445343,-73.9874008,2004,,$10M
222,52cdef7c4bab8bd675297f53,Thumbplay,music,"Music, Videos, Games for Mobile Devices",New York,USA,40.725435,-73.997395,2004,70.0,$41.5M
223,52cdef7c4bab8bd675297f5d,Wonga,web,Online Provider of Small Cash Advances,London,GBR,51.5192042,-0.1626103,2007,,$101M
224,52cdef7c4bab8bd675297f60,SnapTell,software,Image recognition based mobile marketing,Palo Alto,USA,37.433414,-122.128772,2006,,$4M
225,52cdef7c4bab8bd675297f69,Spiceworks,hardware,,Austin,USA,30.386601,-97.753739,2006,,$54M
226,52cdef7c4bab8bd675297f6a,MyHeritage,social,Family history network,Or Yehuda,ISR,32.029748,34.856173,2005,,$49M
227,52cdef7c4bab8bd675297f70,OnForce,enterprise,#1 Source for On-site Tech Talent,Lexington,USA,42.47218,-71.262508,2003,,$26.8M
228,52cdef7c4bab8bd675297f72,Ooyala,analytics,"Video streaming, analytics, monetization",Mountain View,USA,37.386665,-122.084171,2007,300.0,$122M
233,52cdef7c4bab8bd675297f81,hulu,games_video,Online Video Provider,Los Angeles,USA,34.031276,-118.456806,2007,153.0,$100M
234,52cdef7c4bab8bd675297f83,imeem,music,Social music service,San Francisco,USA,37.779624,-122.391236,2003,55.0,$24.8M
235,52cdef7c4bab8bd675297f84,AdMob,advertising,App developer monetization/promotion.,Mountain View,USA,37.563585,-122.324621,2006,,$46.8M
237,52cdef7c4bab8bd675297f9c,TripIt,travel,Organize Your Travel,San Francisco,USA,37.764169,-122.402021,2006,63.0,$13.1M
238,52cdef7c4bab8bd675297f9d,PubMatic,advertising,Sell-Side Platform,Redwood City,USA,37.446668,-122.156579,2006,380.0,$63M
242,52cdef7c4bab8bd675297fb7,Balihoo,advertising,Local Marketing Automation,Boise,USA,43.61295,-116.205637,2004,,$24.5M
243,52cdef7c4bab8bd675297fbb,Smartsheet,enterprise,Online project management,Bellevue,USA,47.617842,-122.20052,2005,,$32.4M
244,52cdef7c4bab8bd675297fbf,Avvo,legal,,Seattle,USA,47.6104101,-122.3396627,2007,,$23M
246,52cdef7c4bab8bd675297fc4,ChessPark,games_video,,West Palm Beach,USA,43.67084,-83.913153,2007,,$1M
247,52cdef7c4bab8bd675297fc5,MuseStorm,web,Widget creator / rich media ad platform,Sunnyvale,USA,37.368594,-122.034021,2005,,$1.5M
248,52cdef7c4bab8bd675297fc7,Clickable,advertising,Solution for online advertisers.,New York,USA,40.7413559,-73.9912208,2006,160.0,$32.5M
250,52cdef7c4bab8bd675297fc8,Eons,network_hosting,,Boston,USA,42.375219,-71.056101,2005,,$32M
251,52cdef7c4bab8bd675297fda,mig33,games_video,Social Entertainment Platform Company,Singapore,SGP,37.580304,-122.343679,2005,100.0,$32.4M
252,52cdef7c4bab8bd675297fdb,Animoto,music,Animated slide-show generator,New York,USA,40.72948,-74.000195,2006,60.0,$30M
255,52cdef7c4bab8bd675298000,Sermo,health,,Cambridge,USA,42.364367,-71.078978,2006,,$41M
256,52cdef7c4bab8bd67529800a,RingCentral,messaging,phone system integration ,San Mateo,USA,37.560155,-122.285588,2003,,$44M
257,52cdef7c4bab8bd67529800c,Zillow,real_estate,,Seattle,USA,47.6011125,-122.3293984,2005,600.0,$96.6M
258,52cdef7c4bab8bd67529800e,MatchMine,web,,Needham,USA,42.304545,-71.220187,2007,,$10M
259,52cdef7c4bab8bd675298012,Mobivox,mobile,VoIP Provider,Montreal,CAN,45.500277,-73.560084,2007,,$11M
260,52cdef7c4bab8bd675298013,3Jam,mobile,,San Francisco,USA,37.765125,-122.4044034,2005,,$4M
261,52cdef7c4bab8bd675298014,PlaySpan,games_video,P2P in-game commerce,Santa Clara,USA,37.396312,-121.961396,2006,,$46.3M
263,52cdef7c4bab8bd675298015,DocuSign,software,web-based electronic signature,Seattle,USA,47.603015,-122.335668,2003,,$116M
264,52cdef7c4bab8bd67529801e,Zimbra,enterprise,,Palo Alto,USA,37.557637,-122.285714,2003,200.0,$14.5M
265,52cdef7c4bab8bd675298021,FriendFeed,web,Social network aggregator,Mountain View,USA,37.39248,-122.072612,2007,,$5M
266,52cdef7c4bab8bd675298022,Wikinvest,web,,San Francisco,USA,37.775196,-122.419204,2006,,$2.5M
267,52cdef7c4bab8bd675298028,Gazelle,ecommerce,Consumer electronics trade-in site,Boston,USA,42.354022,-71.140762,2006,,$46.4M
268,52cdef7c4bab8bd67529802b,Fon,mobile,Your global WiFi network,Madrid,ESP,40.530724,-3.632687,2006,100.0,€44M
269,52cdef7c4bab8bd67529803c,RayV,games_video,TV over IP Network,New York,USA,40.781159,-73.978332,2005,,$16M
270,52cdef7c4bab8bd67529803d,Uptake,web,,Palo Alto,USA,37.443058,-122.161674,2008,,$16.8M
272,52cdef7c4bab8bd67529803f,Polyvore,web,Social Shopping Platform,Mountain View,USA,37.386175,-122.083487,2007,73.0,$22.1M
273,52cdef7c4bab8bd675298042,23andMe,biotech,human genome indexing/application,Mountain View,USA,37.09024,-95.712891,2006,80.0,$161M
274,52cdef7c4bab8bd675298043,YuMe,advertising,Video Advertising,Redwood City,USA,37.476479,-122.221717,2004,,$72.9M
275,52cdef7c4bab8bd675298047,Treemo Labs,mobile,,Seattle,USA,47.620716,-122.347533,2005,,$2.55M
276,52cdef7c4bab8bd67529804a,Blurb,ecommerce,Book development software,San Francisco,USA,37.792968,-122.40414,2005,150.0,$21.6M
277,52cdef7c4bab8bd67529804c,The Climate Corporation,cleantech,Tackling climate change through tech.,San Francisco,USA,37.782809,-122.394354,2006,150.0,$109M
278,52cdef7c4bab8bd67529804c,The Climate Corporation,cleantech,Tackling climate change through tech.,Seattle,USA,47.5984767,-122.3331466,2006,150.0,$109M
279,52cdef7c4bab8bd67529804d,Automattic,web,Develops publishing platforms,San Francisco,USA,37.744274,-122.421344,2005,200.0,$30.6M
280,52cdef7c4bab8bd675298051,Tumblr,web,,New York,USA,40.743808,-73.983626,2007,,$125M
281,52cdef7c4bab8bd675298057,uTest,software,In-the-wild software testing,Framingham,USA,42.288291,-71.52679,2007,120.0,$37.8M
283,52cdef7c4bab8bd67529805a,Payoneer,other,Global Payments Solutions,New York,USA,40.621591,-73.960717,2005,200.0,$14M
284,52cdef7c4bab8bd67529805b,Songkick,music,Concert Listings Site,London,GBR,51.54202,-0.0558343,2007,,$16.6M
287,52cdef7c4bab8bd67529805f,EchoSign,web,The Web's #1 Electronic Signature Servic,Palo Alto,USA,37.445326,-122.160671,2005,100.0,$8.5M
288,52cdef7c4bab8bd675298062,Buzzwire,mobile,,Denver,USA,39.755092,-104.988123,2007,,$12M
289,52cdef7c4bab8bd67529806d,TrialPay,advertising,Product and service barter marketplace,Mountain View,USA,37.388095,-122.08276,2006,100.0,$55.8M
290,52cdef7c4bab8bd675298073,Firetide,mobile,Wireless Broadband Networks,Campbell,USA,37.285133,-121.932962,2003,100.0,$39.8M
294,52cdef7c4bab8bd675298077,eXelate,advertising,smart data. smarter decisions.,New York,USA,40.741266,-73.990753,2007,,$32M
295,52cdef7c4bab8bd675298077,eXelate,advertising,smart data. smarter decisions.,San Francisco,USA,37.787249,-122.3990501,2007,,$32M
296,52cdef7c4bab8bd675298077,eXelate,advertising,smart data. smarter decisions.,Chicago,USA,41.8831959,-87.6517774,2007,,$32M
297,52cdef7c4bab8bd675298077,eXelate,advertising,smart data. smarter decisions.,Kfar-Saba,ISR,32.1618634,34.9341664,2007,,$32M
298,52cdef7c4bab8bd675298077,eXelate,advertising,smart data. smarter decisions.,Paris,FRA,48.8743443,2.3226888,2007,,$32M
299,52cdef7c4bab8bd675298077,eXelate,advertising,smart data. smarter decisions.,London,GBR,51.5150129,-0.1326786,2007,,$32M
300,52cdef7c4bab8bd67529807e,Gydget,web,Marketing Widget Maker,San Francisco,USA,37.791733,-122.398398,2007,,$1M
301,52cdef7c4bab8bd675298081,Gigya,enterprise,Connected Consumer Management Suite,Mountain View,USA,37.43938,-122.158804,2006,230.0,$69.8M
302,52cdef7c4bab8bd675298084,Baynote,software,,San Jose,USA,37.332271,-122.006539,2004,80.0,$27.8M
303,52cdef7c4bab8bd675298085,Songbird,mobile,Effortless Music Discovery,San Francisco,USA,37.787126,-122.39783,2006,,$11M
305,52cdef7c4bab8bd67529808a,GridNetworks,network_hosting,,Seattle,USA,47.602873,-122.336132,2004,,$30M
306,52cdef7c4bab8bd675298093,Qloud,games_video,,Silver Spring,USA,39.016745,-77.023821,2007,,$600k
307,52cdef7c4bab8bd675298095,Vitrue,enterprise,,Atlanta,USA,33.756806,-84.392198,2006,,$33M
308,52cdef7c4bab8bd675298095,Vitrue,enterprise,,New York,USA,40.718888,-74.001169,2006,,$33M
313,52cdef7c4bab8bd675298097,Pelago,mobile,Consumer web and mobile utility,Seattle,USA,47.607065,-122.335373,2005,,$22.4M
314,52cdef7c4bab8bd67529809f,Vringo,software,,New York,USA,40.7550005,-73.9717364,2006,,$37M
315,52cdef7c4bab8bd6752980a4,mDialog,advertising,TV ad insertion connected devices,Toronto,CAN,43.65455,-79.364013,2005,,$8.15M
317,52cdef7c4bab8bd6752980ab,BrightRoll,advertising,Online Video Advertising Network,San Francisco,USA,37.794643,-122.401144,2006,,$46M
321,52cdef7c4bab8bd6752980b6,Zmags,software,Rich-Media Marketing Platform,Copenhagen,DNK,55.6839208,12.571492,2006,95.0,$20.8M
323,52cdef7c4bab8bd6752980b6,Zmags,software,Rich-Media Marketing Platform,London,GBR,51.5111369,-0.1247662,2006,95.0,$20.8M
324,52cdef7c4bab8bd6752980ba,Turn,advertising,Cloud Marketing Platform,Redwood City,USA,37.512253,-122.201099,2004,,$61.1M
331,52cdef7c4bab8bd6752980bc,TrackVia,software,,Denver,USA,39.738499,-105.158645,2006,,$9.02M
332,52cdef7c4bab8bd6752980bd,Loopt,mobile,Social Mapping Service,Mountain View,USA,37.384717,-122.081625,2005,,$32M
333,52cdef7c4bab8bd6752980c4,MyBuys,advertising,Cross-Channel Personalization,San Mateo,USA,37.530893,-122.245087,2006,120.0,$40.8M
334,52cdef7c4bab8bd6752980c4,MyBuys,advertising,Cross-Channel Personalization,Ann Arbor,USA,42.277416,-83.733276,2006,120.0,$40.8M
335,52cdef7c4bab8bd6752980c6,Podaddies,advertising,Video Ad Network,San Francisco,USA,37.7726402,-122.4099154,2006,,$1M
336,52cdef7c4bab8bd6752980c8,Yieldex,advertising,online advertising optimization ,New York,USA,37.636288,-122.42689,2007,,$18.5M
339,52cdef7c4bab8bd6752980d1,Springbox,web,Interactive Marketing Services Agency,Austin,USA,30.269452,-97.742682,2004,65.0,$0
340,52cdef7c4bab8bd6752980d1,Springbox,web,Interactive Marketing Services Agency,Los Angeles,USA,34.0065488,-118.3923578,2004,65.0,$0
343,52cdef7c4bab8bd6752980d6,Vobile,web,,Santa Clara,USA,37.399208,-121.97895,2005,120.0,$10M
344,52cdef7c4bab8bd6752980d7,Vivox,advertising,Integrated Voice Chat Provider,Natick,USA,37.09024,-95.712891,2005,,$22.6M
345,52cdef7c4bab8bd6752980db,Billeo,ecommerce,,Santa Clara,USA,37.385216,-121.972128,2006,,$15.3M
346,52cdef7c4bab8bd6752980db,Billeo,ecommerce,,Santa Clara,USA,37.4069445,-121.9797628,2006,,$15.3M
347,52cdef7c4bab8bd6752980e4,GeoSentric,mobile,Social Network and LBS product developer,Amsterdam,NLD,37.09024,-95.712891,2007,,$24.1M
348,52cdef7c4bab8bd6752980e8,RescueTime,web,,Seattle,USA,47.603577,-122.335333,2007,,$920k
350,52cdef7c4bab8bd6752980f1,Blyk,messaging,Mobile Social Networking,Helsinki,FIN,52.146853,-1.721287,2006,100.0,€87M
354,52cdef7c4bab8bd6752980f9,Zoji,web,,Seattle,USA,47.620716,-122.347533,2004,,$1.5M
355,52cdef7c4bab8bd6752980fa,Worktopia,enterprise,,White Plains,USA,40.987453,-73.741649,2004,,$10.4M
358,52cdef7c4bab8bd67529810f,Splunk,software,Machine data analytics,San Francisco,USA,37.78274,-122.390945,2003,500.0,$40M
359,52cdef7c4bab8bd675298113,UpNext,mobile, 3D maps for the mobile devices,New York City,USA,40.757929,-73.985506,2007,,$500k
360,52cdef7c4bab8bd675298118,TrustedID,security,identity protection solutions,Palo Alto,USA,37.520592,-122.255907,2005,120.0,$25M
361,52cdef7c4bab8bd675298119,Youku,photo_video,Chinese video site,Shanghai,CHN,31.2006566,121.4384701,2006,,$120M
363,52cdef7c4bab8bd67529811c,TeamPages,web,Team and league websites.,Vancouver,CAN,49.2753229,-123.1208785,2006,,$500k
368,52cdef7c4bab8bd675298125,SeeToo,enterprise,,New York,USA,40.755861,-73.996272,2007,,$1M
369,52cdef7c4bab8bd675298129,Songza,music,Playlists For Everything,Long Island City,USA,40.7473113,-73.9549182,2007,,$6.7M
370,52cdef7c4bab8bd67529812c,CollegeFanz,network_hosting,Social network around college sports,Mt. Laurel,USA,39.935819,-74.909185,2007,,$2.5M
371,52cdef7c4bab8bd67529812e,Yodle,advertising,Online Marketing for Local Businesses,New York,USA,40.742459,-73.9918126,2005,1000.0,$40M
372,52cdef7c4bab8bd67529812e,Yodle,advertising,Online Marketing for Local Businesses,Austin,USA,30.378658,-97.731249,2005,1000.0,$40M
373,52cdef7c4bab8bd67529812e,Yodle,advertising,Online Marketing for Local Businesses,Charlotte,USA,35.139441,-80.916109,2005,1000.0,$40M
374,52cdef7c4bab8bd67529812e,Yodle,advertising,Online Marketing for Local Businesses,Scottsdale,USA,33.464377,-111.924855,2005,1000.0,$40M
375,52cdef7c4bab8bd67529812e,Yodle,advertising,Online Marketing for Local Businesses,Buford,USA,34.105226,-84.03398,2005,1000.0,$40M
376,52cdef7c4bab8bd675298130,Motionbox,games_video,Video Sharing,New York,USA,40.606061,-73.822331,2006,,$17.2M
377,52cdef7c4bab8bd675298132,Deezer,music,World's first music streaming service,Paris,FRA,48.8780596,2.3283853,2006,200.0,$149M
378,52cdef7c4bab8bd675298134,betNOW,web,Mobile Betting service,London,GBR,51.511599,-0.126389,2005,,$5M
379,52cdef7c4bab8bd675298135,eyeOS,enterprise,Leading Cloud Desktop worldwide. ,Barcelona,ESP,41.3854855,2.1702872,2005,,€1M
380,52cdef7c4bab8bd675298137,Jott,web,speech-to-text services,Seattle,USA,47.6139472,-122.327807,2006,,$5.4M
381,52cdef7c4bab8bd67529813a,HubSpot,software,inbound marketing platform,Cambridge,USA,42.375392,-71.118487,2006,650.0,$131M
382,52cdef7c4bab8bd67529813b,Kewego,games_video,Video sharing and distribution,Paris,FRA,46.227638,2.213749,2003,65.0,$19.4M
383,52cdef7c4bab8bd67529813f,Vidyo,messaging,high-definition video conferencing ,Hackensack,USA,40.909378,-74.033707,2005,80.0,$141M
384,52cdef7c4bab8bd675298142,Intronis,enterprise,Cloud backup services,Boston,USA,42.351105,-71.049124,2003,,$25.9M
385,52cdef7c4bab8bd675298146,SocialPicks,web,Collaborative Investing,New York,USA,37.09024,-95.712891,2006,,$500k
386,52cdef7c4bab8bd675298147,iMemories,enterprise,Online Video & Photo Sharing,Scottsdale,USA,33.639318,-111.883237,2006,,$16M
387,52cdef7c4bab8bd67529814d,ClickTale,analytics,Web Analytics,Ramat Gan,ISR,31.046051,34.851612,2006,,$23M
388,52cdef7c4bab8bd67529814d,ClickTale,analytics,Web Analytics,Ramat Gan,ISR,32.068424,34.824785,2006,,$23M
389,52cdef7c4bab8bd67529814f,Twenga,ecommerce,Shopping search & price comparison sites,Paris,FRA,48.856667,2.350987,2006,,€2.6M
392,52cdef7c4bab8bd675298150,TradeKing,web,Online Stock and Options Broker,Fort Lauderdale,USA,26.119102,-80.1343038,2005,,$6M
393,52cdef7c4bab8bd675298151,Viadeo,social,Professional Social Network,Paris,FRA,48.8747064,2.3304161,2004,400.0,$50.2M
394,52cdef7c4bab8bd675298155,CafeMom,network_hosting,Social network for mothers,New York,USA,37.09024,-95.712891,2006,,$17M
396,52cdef7c4bab8bd675298156,Shipwire,enterprise,ecommerce order fulfillment,Palo Alto,USA,37.4418834,-122.1430195,2006,,$10M
397,52cdef7c4bab8bd675298159,GrubHub,hospitality,online and mobile food ordering service,Chicago,USA,41.907647,-87.649878,2004,250.0,$84.1M
398,52cdef7c4bab8bd67529815f,Gilt Groupe,fashion,Designer Sample Sales Online,New York,USA,40.74727,-73.9800645,2007,,$236M
399,52cdef7c4bab8bd675298161,BeliefNet,web,,New York,USA,40.740231,-73.985433,2008,,$7M
400,52cdef7c4bab8bd675298164,Bahu,web,Global Student Social Network,Paris,PRT,48.882434,2.297035,2007,,€1M
402,52cdef7c4bab8bd675298167,AppJet,web,,San Francisco,USA,37.775196,-122.419204,2007,,$715k
403,52cdef7c4bab8bd675298168,Kosmix,web,Web guide organized by topic,Mountain View,USA,37.3867729,-122.0752224,2005,,$55M
404,52cdef7c4bab8bd67529816c,Goodreads,web,Community for book lovers,Santa Monica,USA,34.01052,-118.495981,2007,70.0,$2.75M
406,52cdef7c4bab8bd67529816f,Jobvite,social,On-demand job recruiting,Burlingame,USA,37.789034,-122.398503,2003,,$30.5M
407,52cdef7c4bab8bd675298172,ideeli,ecommerce,Online Retail Marketplace,New York,USA,40.755978,-73.990396,2007,,$107M
408,52cdef7c4bab8bd675298173,Streamezzo,mobile,media mobile products ,Paris,FRA,48.872159,2.291225,2004,,$45.5M
409,52cdef7c4bab8bd675298174,Shoeboxed,web,Painless Receipt & Expense Management,Durham,USA,35.996157,-78.902115,2007,70.0,$2.51M
410,52cdef7c4bab8bd675298174,Shoeboxed,web,Painless Receipt & Expense Management,Durham,USA,35.9939,-78.8986,2007,70.0,$2.51M
412,52cdef7c4bab8bd675298178,Qik,mobile,Live video casting from cell phones,Redwood City,USA,37.486368,-122.230116,2006,60.0,$14.8M
413,52cdef7c4bab8bd67529817d,PlayFirst,games_video,Mobile games,San Francisco,USA,37.790346,-122.40185,2004,,$37.7M
415,52cdef7c4bab8bd67529817e,Libersy,ecommerce,Online Booking made easy,Almere,NLD,52.373812,4.890951,2006,,€1.6M
416,52cdef7c4bab8bd675298183,KAYAK,search,travel search engine,Norwalk,USA,41.1010914,-73.4168779,2004,101.0,$235M
418,52cdef7c4bab8bd675298185,Acquia,enterprise,Enterprise Guide to Drupal,Burlington,USA,42.524527,-71.137784,2007,400.0,$68.5M
419,52cdef7c4bab8bd67529818a,GridPoint,cleantech,Energy Management,Arlington,USA,38.888107,-77.091562,2003,,$285M
420,52cdef7c4bab8bd67529818d,Etsy,ecommerce,Handmade marketplace,Brooklyn,USA,40.694731,-73.983268,2005,300.0,$91.7M
421,52cdef7c4bab8bd67529818f,Kior,cleantech,Biofuels,Pasadena,USA,37.09024,-95.712891,2007,,$298M
422,52cdef7c4bab8bd675298191,Causes,nonprofit,Campaigning Platform,San Francisco,USA,37.870258,-122.272513,2007,,$16.4M
423,52cdef7c4bab8bd675298193,Challenge Games,network_hosting,Online social games,Austin,USA,30.268236,-97.740651,2006,,$14.5M
424,52cdef7c4bab8bd675298198,Tesla Motors,automotive,Electric Sport Cars,Palo Alto,USA,37.496737,-122.245323,2003,500.0,$823M
426,52cdef7c4bab8bd67529819d,Bunchball,software,Gamification,Redwood City,USA,37.3208403,-121.9479223,2005,60.0,$12.5M
428,52cdef7c4bab8bd6752981a1,Delve Networks,games_video,,Seattle,USA,47.600818,-122.334117,2006,,$9.65M
431,52cdef7c4bab8bd6752981ae,LifeOnKey,web,health record platform,New York,USA,37.09024,-95.712891,2003,,$10M
432,52cdef7c4bab8bd6752981af,Scrapblog,web,"Online, Multimedia Scrapbook Editor",San Francisco,USA,25.752358,-80.25468,2006,,$10M
433,52cdef7c4bab8bd6752981b1,Blekko,search,Search engine,Redwood Shores,USA,37.09024,-95.712891,2007,,$60.2M
434,52cdef7c4bab8bd6752981b8,Meraki,network_hosting,Cloud-managed network infrastructure,San Francisco,USA,37.392443,-122.072517,2006,,$80M
435,52cdef7c4bab8bd6752981ba,SugarCRM,software,CRM software company,Cupertino,USA,37.323739,-122.014147,2004,,$135M
436,52cdef7c4bab8bd6752981c3,Jobfox,web,job search and career networking site,McLean,USA,38.92719,-77.216969,2004,,$42M
437,52cdef7c4bab8bd6752981c7,Outspark,games_video,Video game publishing,San Francisco,USA,37.775196,-122.419204,2007,,$23.3M
438,52cdef7c4bab8bd6752981c8,ARPU,advertising,Performance based ad network,Washington,USA,37.09024,-95.712891,2005,,$15.6M
439,52cdef7c4bab8bd6752981cd,Joyent,enterprise,Cloud Computing,San Francisco,USA,37.856743,-122.480153,2004,,$112M
440,52cdef7c4bab8bd6752981cf,Woot,web,"""one deal per day"" ecommerce",Carrollton,USA,33.020526,-96.848836,2004,200.0,$0
441,52cdef7c4bab8bd6752981d4,PLYmedia,advertising,,Palo Alto,USA,37.400821,-122.131383,2006,,$5.7M
442,52cdef7c4bab8bd6752981d7,fabrik,network_hosting,,San Mateo,USA,37.553743,-122.300246,2005,175.0,$51.3M
443,52cdef7c4bab8bd6752981dc,RazorGator,ecommerce,online ticket reselling,Los Angeles,USA,34.047312,-118.445243,2011,,$58.8M
444,52cdef7c4bab8bd6752981dd,yoonew,web,,New York,USA,40.75362,-73.986557,2004,,$4M
445,52cdef7c4bab8bd6752981e0,AF83,web,360 web experts,PARIS,FRA,48.862063,2.35022,2006,55.0,$0
447,52cdef7c4bab8bd6752981e1,Zynga,games_video,Network of gaming applications,San Francisco,USA,37.765158,-122.404234,2007,115.0,$860M
460,52cdef7c4bab8bd6752981f7,blinkbox music,music,Music,Oxford,GBR,51.7319786,-1.2063327,2007,,$6M
462,52cdef7c4bab8bd675298202,XING,network_hosting,,Hamburg,DEU,53.555554,9.98793,2003,500.0,€5.7M
466,52cdef7c4bab8bd675298207,Amobee,advertising,Mobile Advertising Service ,Redwood City,USA,37.52845,-122.263721,2005,,$60M
467,52cdef7c4bab8bd675298208,Visible Measures,advertising,Social video analytics & advertising,Boston,USA,42.3536303,-71.0590483,2005,,$90M
470,52cdef7c4bab8bd67529821e,Heroku,enterprise,cloud application platform,San Francisco,USA,37.775196,-122.419204,2007,80.0,$13M
473,52cdef7c4bab8bd675298233,Seatwave,ecommerce,UK based ticket reseller ,London,GBR,51.500152,-0.126236,2006,,$53M
474,52cdef7c4bab8bd675298238,BreakingPoint Systems,security,,Austin,USA,30.384453,-97.709809,2005,109.0,$20M
475,52cdef7c4bab8bd67529824d,Citrix Online,web,,Goleta,USA,34.431454,-119.855405,2003,700.0,$0
476,52cdef7c4bab8bd67529824e,EnterpriseDB,enterprise,Relational Database Management System,Bedford,USA,40.562967,-74.332355,2004,,$56.6M
477,52cdef7c4bab8bd675298258,Survey Analytics,web,,Seattle,USA,47.650674,-122.349863,2003,100.0,$0
478,52cdef7c4bab8bd67529825c,VentureBeat,public_relations,Blog about Venture Funding,,USA,37.269175,-119.306607,2006,,$320k
481,52cdef7c4bab8bd675298285,RocketOn,web,Multiplayer social games,South San Francisco,USA,37.65466,-122.40788,2007,,$5.8M
482,52cdef7c4bab8bd675298299,Limeade,health,,Bellevue,USA,47.6097449,-122.196699,2006,55.0,$8.99M
483,52cdef7c4bab8bd67529829d,Mixbook,web,Online Photo Book Software,Palo Alto,USA,37.383844,-121.918319,2006,90.0,$11M
485,52cdef7c4bab8bd6752982a6,GameDuell,games_video,Casual Online Games,Berlin,DEU,52.5131826,13.3941489,2003,200.0,$17.5M
486,52cdef7c4bab8bd6752982b4,stickK,web,,New York,USA,40.744837,-73.983843,2007,,$2.23M
488,52cdef7c4bab8bd6752982c2,amiando,web,Online Event Registration,Munich,DEU,48.124827,11.556452,2006,76.0,$0
489,52cdef7c4bab8bd6752982c2,amiando,web,Online Event Registration,London,GBR,51.5248598,-0.0836311,2006,76.0,$0
490,52cdef7c4bab8bd6752982c2,amiando,web,Online Event Registration,Hong Kong,HKG,22.2799907,114.1587983,2006,76.0,$0
491,52cdef7c4bab8bd6752982c2,amiando,web,Online Event Registration,Paris,FRA,48.857993,2.381153,2006,76.0,$0
492,52cdef7c4bab8bd6752982c6,Qype,web,"Location-based reviews, recommendations",Hamburg,DEU,53.54598,9.987181,2005,,£14.5M
494,52cdef7c4bab8bd6752982ca,GumGum,advertising,Premium In-Image Advertising Platform,Santa Monica,USA,34.052187,-118.243425,2007,55.0,$10.8M
495,52cdef7c4bab8bd6752982cf,TwoFish,ecommerce,managing microtransactions w/i games,Redwood City,USA,37.522281,-122.258139,2006,,$9.5M
497,52cdef7c4bab8bd6752982d4,Advaliant,advertising,,Toronto,CAN,43.646599,-79.403014,2013,60.0,$100k
498,52cdef7c4bab8bd6752982d4,Advaliant,advertising,,New York,USA,40.743662,-73.984268,2013,60.0,$100k
499,52cdef7c4bab8bd6752982d4,Advaliant,advertising,,New York,USA,40.743662,-73.984268,2013,60.0,$100k
500,52cdef7c4bab8bd6752982f0,Sparkplay Media,web,MMO Game developer,Mill Valley,USA,37.905544,-122.547445,2006,,$7.05M
501,52cdef7c4bab8bd6752982f1,TheLadders,web,,New York,USA,40.725883,-74.006196,2003,110.0,$7.25M
502,52cdef7c4bab8bd6752982f4,Cellfire,mobile,Digital coupon provider,San Jose,USA,37.395923,-121.92902,2005,,$26M
504,52cdef7c4bab8bd67529830b,MOG,music,"Subscription music service, ad network",Berkeley,USA,37.872222,-122.268403,2005,60.0,$24.9M
509,52cdef7c4bab8bd67529831a,Social Gaming Network,games_video,social gaming platform,Los Angeles,USA,37.446823,-122.161523,2011,100.0,$17.1M
510,52cdef7c4bab8bd67529831a,Social Gaming Network,games_video,social gaming platform,Beverly Hills,USA,34.0698494,-118.4054182,2011,100.0,$17.1M
511,52cdef7c4bab8bd67529834f,doubleTwist,software,Music for the Internet of Things,San Francisco,USA,37.775196,-122.419204,2007,,$7.5M
512,52cdef7c4bab8bd675298360,MediaTrust,advertising,Performance Marketing Company,New York,USA,40.743662,-73.984268,2004,60.0,$21M
513,52cdef7c4bab8bd675298367,JackPot Rewards,web,Retail Portal for Charity,Newton,USA,42.337037,-71.251748,2008,,$16.7M
514,52cdef7c4bab8bd67529836b,AdoTube,advertising,Video Advertising Management Platform,New York,USA,40.752672,-73.97593,2007,160.0,$1.23M
517,52cdef7c4bab8bd675298373,P2P-Next,hardware,Social Media Conglomerate,,NLD,52.132633,5.291266,2008,,€19M
518,52cdef7c4bab8bd675298375,FameCast,games_video,online talent competition,Austin,USA,30.268735,-97.745209,2007,,$9.7M
519,52cdef7c4bab8bd675298376,Grooveshark,web,Streaming music service,Gainesville,USA,29.6502461,-82.3230981,2006,113.0,$4.44M
522,52cdef7c4bab8bd675298382,Evernote,software,Remember everything.,Redwood City,USA,37.386774,-121.987661,2004,280.0,$251M
523,52cdef7c4bab8bd67529838b,Raptr,games_video,Social Gaming Community,Mountain View,USA,37.40384,-122.07808,2007,,$27M
524,52cdef7c4bab8bd675298396,GoldSpot Media,advertising,Mobile Video and Rich Media Advertising,Sunnyvale,USA,37.384206,-121.992805,2006,,$17.1M
525,52cdef7c4bab8bd675298397,Ad Infuse,advertising,Advertising for Mobile video,San Francisco,USA,37.793375,-122.404571,2005,,$17.6M
526,52cdef7c4bab8bd67529839a,EVO Media Group,finance,,Seattle,USA,47.613896,-122.3413,2007,,$1.5M
527,52cdef7c4bab8bd67529839d,Covario,enterprise,Marketing Analytics,San Diego,USA,32.912063,-117.114827,2006,100.0,$16M
528,52cdef7c4bab8bd67529839e,SendMe,mobile,Mobile Content ,San Francisco,USA,37.787126,-122.39783,2006,,$34.5M
529,52cdef7c4bab8bd6752983a3,Kluster,web,Project Collaboration Tool,New York,USA,40.723652,-73.985281,2008,,$1M
530,52cdef7c4bab8bd6752983a5,Blog Talk Radio,web,Podcast and web radio site,New York,USA,40.757929,-73.985506,2006,,$6.54M
531,52cdef7c4bab8bd6752983bc,Flurry,advertising,Mobile Analytics and Advertising,San Francisco,USA,37.783046,-122.394067,2005,150.0,$63.3M
536,52cdef7c4bab8bd6752983be,Issuu,web,digital publishing platform and discover,Palo Alto,USA,37.4784804,-122.1514101,2006,,$6.25M
537,52cdef7c4bab8bd6752983c2,Howcast,photo_video,,New York City,USA,40.646166,-73.889492,2008,,$11M
538,52cdef7c4bab8bd6752983c7,SugarSync,web,Data Sync and Online Backup,San Mateo,USA,37.54763,-122.307887,2004,60.0,$61M
539,52cdef7c4bab8bd6752983cd,BillShrink,web,Product and service recomendations,Redwood City,USA,37.503147,-122.211435,2008,,$9M
540,52cdef7c4bab8bd6752983cf,Teneros,messaging,Data continuity Software,Mountain View,USA,37.389022,-122.062778,2004,,$92.5M
541,52cdef7c4bab8bd6752983d4,Outbrain,web,Content discovery platform,New York City,USA,40.757929,-73.985506,2006,,$99M
545,52cdef7c4bab8bd6752983dc,Kazeon,enterprise,Legal Software,Mountain View,USA,37.431769,-122.099577,2003,,$41M
547,52cdef7c4bab8bd6752983ec,MoFuse,mobile,Building mobile Website,Providence,USA,41.826956,-71.408718,2007,,$1.83M
548,52cdef7c4bab8bd6752983f3,OLX,web,international online classifieds,New York,USA,40.8587524,-73.7258199,2006,85.0,$28.5M
551,52cdef7c4bab8bd67529840b,Right Media,advertising,Digital Advertisng Exchange,New York,USA,40.74632,-73.982607,2003,,$45M
553,52cdef7c4bab8bd67529841d,FreshBooks,web,"Online billing, invoicing, time tracking",Toronto,CAN,43.70391,-79.452609,2003,110.0,$0
554,52cdef7c4bab8bd675298430,Mzinga,social,Social software solutions,Burlington,USA,42.489827,-71.223359,2007,,$42.5M
555,52cdef7c4bab8bd67529843a,AtomicOnline,web,A diversified online media company,Los Angeles,USA,33.988735,-118.368871,2004,110.0,$0
560,52cdef7c4bab8bd675298441,Phreesia,software,patient check-in software,New York,USA,40.739794,-73.985878,2005,70.0,$42.7M
561,52cdef7c4bab8bd675298447,99designs,design,Online graphic design marketplace,San Francisco,USA,37.7955307,-122.4005983,2008,100.0,$35M
562,52cdef7c4bab8bd675298447,99designs,design,Online graphic design marketplace,Collingwood,AUS,-37.8026587,144.9868546,2008,100.0,$35M
563,52cdef7c4bab8bd675298447,99designs,design,Online graphic design marketplace,Berlin,DEU,52.4986199,13.4469031,2008,100.0,$35M
564,52cdef7c4bab8bd675298448,Innofidei,hardware,fabless semiconductor company,Beijing,CHN,39.905556,116.395833,2006,,$10M
565,52cdef7c4bab8bd675298457,Ifbyphone,software,Voice-Based Marketing Automation,Chicago,USA,42.040851,-87.750643,2005,90.0,$30.3M
566,52cdef7c4bab8bd67529845b,LiveRail,advertising,video advertising technology,San Francisco,USA,37.787183,-122.397759,2008,110.0,$12M
567,52cdef7c4bab8bd67529845d,Generate,games_video,Cross platform production & management,Santa Monica,USA,34.031328,-118.471463,2004,,$8M
568,52cdef7c4bab8bd67529845d,Generate,games_video,Cross platform production & management,New York,USA,40.7570972,-73.969821,2004,,$8M
569,52cdef7c4bab8bd675298460,OpenDNS,security,Cloud Based Internet Security Provider,San Francisco,USA,37.789268,-122.395184,2005,200.0,$16.3M
570,52cdef7c4bab8bd675298461,Paxfire,,,Sterling,USA,38.988367,-77.421054,2003,,$2.2M
571,52cdef7c4bab8bd675298463,Kareo,software,Medical SaaS,Irvine,USA,33.676444,-117.8587,2004,250.0,$51.4M
572,52cdef7c4bab8bd67529846a,VZnet Netzwerke,web,German Social Network,Berlin,DEU,52.5290751,13.4161514,2005,300.0,$0
573,52cdef7c4bab8bd67529847b,Rutube,web,Russian Video Portal,Moscow,RUS,52.78945,36.42735,2006,80.0,$0
574,52cdef7c4bab8bd675298482,Footnote,web,Online document archives,Lindon,USA,40.3310529,-111.7276347,2006,66.0,$10M
575,52cdef7c4bab8bd675298484,Coveo,enterprise,Enterprise search solutions,Vernon Hills,USA,37.446078,-122.167506,2005,,$34.7M
577,52cdef7c4bab8bd675298488,Vovici,enterprise,Survey software company,Dulles,USA,38.983393,-77.434128,2006,100.0,$16.3M
578,52cdef7c4bab8bd675298488,Vovici,enterprise,Survey software company,Kingston Upon Thames,GBR,51.4140631,-0.3016459,2006,100.0,$16.3M
580,52cdef7c4bab8bd6752984a5,PI Corporation,network_hosting,Personal Data Cloud Storage,Seattle,USA,47.602416,-122.332614,2003,,$9.4M
581,52cdef7c4bab8bd6752984b0,Giant Realm,web,Media Hosting,New York,USA,40.7566658,-73.9827553,2007,,$5.5M
582,52cdef7c4bab8bd6752984b1,Mobenga,mobile,Makes betting mobile,Malmö,SWE,56.154292,13.813313,2005,70.0,$0
585,52cdef7c4bab8bd6752984d1,Clickpass,web,,San Francisco,USA,37.775196,-122.419204,2007,90.0,$20k
586,52cdef7c4bab8bd6752984d2,Janrain,web,User Management Platform,Portland,USA,45.484413,-122.675838,2005,,$51.8M
587,52cdef7c4bab8bd6752984d4,SearchMe,search,visual search engine,Mountain View,USA,37.386665,-122.084171,2005,52.0,$43.6M
588,52cdef7c4bab8bd6752984d4,SearchMe,search,visual search engine,San Francisco,USA,37.793473,-122.402667,2005,52.0,$43.6M
589,52cdef7c4bab8bd6752984e2,AccountNow,web,,San Ramon,USA,37.769922,-122.001446,2003,,$34.1M
590,52cdef7c4bab8bd6752984e7,TalkShoe,web,,Wexford,USA,40.616311,-80.059548,2005,,$1.13M
591,52cdef7c4bab8bd6752984e9,Workday,enterprise,"human resources, financial management",Pleasanton,USA,37.694202,-121.921532,2005,900.0,$175M
593,52cdef7c4bab8bd6752984f6,PopularMedia,advertising,Online ad campaign management,San Francisco,USA,37.767575,-122.411157,2003,,$12.3M
594,52cdef7c4bab8bd6752984fb,Clarizen,software,Work & Project management software,San Mateo,USA,37.536044,-122.328401,2005,110.0,$56M
596,52cdef7c4bab8bd6752984fc,Next New Networks,web,Micro television network platform,New York,USA,40.743808,-73.983626,2007,121.0,$27.1M
597,52cdef7c4bab8bd675298514,Zuora,software,Subscription billing and management,Foster City,USA,37.5596277,-122.2709868,2007,250.0,$128M
599,52cdef7c4bab8bd67529851b,Jivox,advertising,Interactive video advertising platform.,Redwood City,USA,37.555962,-122.288006,2007,60.0,$25.6M
600,52cdef7c4bab8bd675298521,ShareThis,social,"sharing network, social influence",Palo Alto,USA,37.4203945,-122.0872274,2007,80.0,$82.9M
601,52cdef7c4bab8bd675298535,Elastra,software,software company,San Francisco,USA,37.791137,-122.391843,2007,,$14.6M
602,52cdef7c4bab8bd675298538,Star Analytics,software,Business Intelligence Software,San Mateo,USA,37.556152,-122.281484,2004,,$3.5M
604,52cdef7c4bab8bd675298540,SupplyFrame,advertising,Online marketing for electronics,Pasadena,USA,34.143885,-118.151542,2003,60.0,$15.5M
605,52cdef7c4bab8bd675298541,Scalent Systems,public_relations,virtualization software,Palo Alto,USA,37.429676,-122.1085482,2003,,$15M
607,52cdef7c4bab8bd67529854d,Playfish,games_video,Social games company,London,GBR,51.4991094,-0.1984802,2007,,$21M
608,52cdef7c4bab8bd67529854d,Playfish,games_video,Social games company,TromsÃ¸,NOR,69.636216,18.931062,2007,,$21M
609,52cdef7c4bab8bd675298561,Octopart,search,Vertical Search Engine,New York,USA,37.750608,-122.423581,2007,,$300k
610,52cdef7c4bab8bd675298577,Tapioca Mobile,mobile,Mobile rich Media,San Diego,USA,32.88945,-117.166929,2008,,$5M
611,52cdef7c4bab8bd67529858e,Slicethepie,games_video,Fundraising Software,,GBR,55.378051,-3.435973,2007,,$4.8M
612,52cdef7c4bab8bd675298590,ShowClix,web,Online event ticketing solutions,Pittsburgh,USA,40.517948,-79.842487,2007,,$4.05M
613,52cdef7c4bab8bd675298591,Handipoints,games_video,Chore point system for kids,Oakland,USA,37.772323,-122.214897,2009,,$800k
614,52cdef7c4bab8bd6752985a1,ScanCafe,web,,Burlingame,USA,37.592584,-122.369676,2006,350.0,$4M
615,52cdef7c4bab8bd6752985a5,liveBooks,public_relations,Creative CMS,Sausalito,USA,37.8712444,-122.5036866,2005,53.0,$5M
618,52cdef7c4bab8bd6752985a9,KidZui,web,Web browser designed for kids,San Diego,USA,37.09024,-95.712891,2006,,$18.4M
619,52cdef7c4bab8bd6752985ac,Moblica,mobile,,Tel Aviv,ISR,32.0554,34.7595,2011,,$6M
620,52cdef7c4bab8bd6752985c2,Act-On Software,enterprise,Integrated marketing platform,Beaverton,USA,45.484177,-122.79635,2008,,$30.5M
624,52cdef7c4bab8bd6752985d0,Dimdim,web,,Lowell,USA,42.6161515,-71.3258687,2006,,$8.4M
626,52cdef7c4bab8bd6752985e4,OrangeSoda,advertising,Small business online marketing,American Fork,USA,40.358294,-111.780243,2006,160.0,$7.5M
627,52cdef7c4bab8bd6752985e6,Aternity,enterprise,end user experience management,Westborough,USA,42.279967,-71.5827673,2004,,$25.5M
628,52cdef7c4bab8bd6752985e7,Networked Insights,analytics,Marketing Decisions Platform,Madison,USA,41.278528,-72.5254318,2006,130.0,$38.4M
629,52cdef7c4bab8bd6752985e7,Networked Insights,analytics,Marketing Decisions Platform,New York,USA,40.745559,-73.986243,2006,130.0,$38.4M
630,52cdef7c4bab8bd6752985e7,Networked Insights,analytics,Marketing Decisions Platform,Chicago,USA,41.879979,-87.634173,2006,130.0,$38.4M
631,52cdef7c4bab8bd675298608,Magento,ecommerce,eCommerce Platform,Los Angeles,USA,34.052187,-118.243425,2010,275.0,$22.5M
632,52cdef7c4bab8bd675298609,Netbooks,web,,San Francisco,USA,37.79471,-122.40195,2006,,$16.4M
633,52cdef7c4bab8bd67529862d,babbel,education,Learn Languages Online,Berlin,DEU,52.4897,13.38861,2007,205.0,$10M
634,52cdef7c4bab8bd675298631,7digital,music,Digital Media Delivery,London,GBR,51.5254,-0.083726,2004,120.0,$20.1M
635,52cdef7c4bab8bd675298646,Kannuu,software,Stop Searching Start Finding,Dallas,USA,32.9249424,-96.7679229,2007,,$2M
636,52cdef7c4bab8bd675298650,Wikimedia Foundation,nonprofit,Open source information distribution,San Francisco,USA,37.76785,-122.392839,2003,143.0,$74M
637,52cdef7c4bab8bd675298651,Clearwell Systems,software,Computer Software,Mountain View,USA,37.398022,-122.049143,2004,210.0,$29M
638,52cdef7c4bab8bd67529865a,Become,search,Shoping and comparison service,Sunnyvale,USA,37.424801,-122.07259,2004,,$37.2M
640,52cdef7c4bab8bd675298664,Business Insider,web,Business News reporter,New York,USA,40.73906,-73.990911,2007,,$18.6M
641,52cdef7c4bab8bd675298666,The Echo Nest,music,Music Intelligence Company,Somerville,USA,42.396495,-71.12045,2005,65.0,$25.6M
643,52cdef7c4bab8bd67529866c,BeInSync,network_hosting,Backup Data Storage,Tel Aviv,ISR,32.0554,34.7595,2004,,$8M
645,52cdef7c4bab8bd675298671,Perfect Market,software,Digital Publishing Software & Services,Pasadena,USA,34.146436,-118.153136,2007,60.0,$30.6M
647,52cdef7c4bab8bd675298672,iovation,security,Online Fraud Detection,Portland,USA,45.52254,-122.675536,2004,65.0,$15M
648,52cdef7c4bab8bd67529867a,Glassdoor,web,Jobs and Career Community,Sausalito,USA,37.868002,-122.500111,2007,180.0,$91.5M
649,52cdef7c4bab8bd675298690,itzbig,search,,Austin,USA,30.387275,-97.759511,2006,,$4M
650,52cdef7c4bab8bd675298696,Marketo,software,Marketing Automation Software,San Mateo,USA,37.5583,-122.301385,2006,260.0,$108M
651,52cdef7c4bab8bd675298698,Bonobos,ecommerce,E-commerce driven men's retailer,New York,USA,40.7384997,-73.9954585,2007,150.0,$74.7M
652,52cdef7c4bab8bd67529869e,Edmodo,education,Social learning network,San Mateo,USA,41.857915,-88.321171,2008,100.0,$40M
654,52cdef7c4bab8bd6752986b1,Xoopit,web,Email management add-on,San Francisco,USA,37.7617955,-122.4092704,2004,,$6.5M
655,52cdef7c4bab8bd6752986b8,Reality Digital,software,White Label Social Media,Berkeley,USA,37.859443,-122.291817,2003,,$8.3M
656,52cdef7c4bab8bd6752986bb,Q-Layer,software,Datacenter Management,Lochristi,BEL,51.070829,3.771122,2005,,€10.3M
657,52cdef7c4bab8bd6752986c1,Adlucent,software,,Austin,USA,30.316226,-97.71813,2005,85.0,$0
658,52cdef7c4bab8bd6752986c5,Metaversum,web,Virtual world providor,Berlin,DEU,52.512249,13.419841,2006,,$6.26M
659,52cdef7c4bab8bd6752986cb,Placecast,mobile,,San Francisco,USA,37.773688,-122.423468,2005,,$8M
661,52cdef7c4bab8bd675298709,Egnyte,enterprise,Hybrid Cloud File Sharing for Business,Mountain View,USA,37.429647,-122.100288,2006,,$66.7M
662,52cdef7c4bab8bd675298710,Jodange,web,Business prediction company,Yonkers,USA,40.934803,-73.901839,2007,,$1.2M
664,52cdef7c4bab8bd67529873e,Odeo,web,,New York,USA,40.753918,-73.981237,2005,60.0,$0
665,52cdef7c4bab8bd675298740,Cellfish,web,Global Mobile Media Publisher,New York,USA,40.761855,-73.983754,2004,220.0,$60M
666,52cdef7c4bab8bd675298743,eSolar,cleantech,Solar Thermal Power Plant,Pasadena,USA,34.146436,-118.153136,2007,140.0,$192M
667,52cdef7c4bab8bd675298745,Krugle,search,Source Code Search enging,Menlo Park,USA,37.45604,-122.165399,2006,,$6.1M
668,52cdef7c4bab8bd675298752,Marin Software,advertising,Online Advertising Management,San Francisco,USA,37.792083,-122.3946404,2006,,$100M
669,52cdef7c4bab8bd675298754,Huddle,enterprise,Cloud Content Collaboration,London,GBR,51.4999065,-0.0814873,2006,200.0,$38.2M
670,52cdef7c4bab8bd675298754,Huddle,enterprise,Cloud Content Collaboration,San Francisco,USA,37.78236,-122.403256,2006,200.0,$38.2M
672,52cdef7c4bab8bd67529875c,SiBEAM,mobile,fabless semiconductor company,Sunnyvale,USA,37.390704,-122.03039,2004,,$114M
673,52cdef7c4bab8bd675298788,RichRelevance,ecommerce,Personalization Provider,San Francisco,USA,37.7938969,-122.4000965,2006,250.0,$57.8M
678,52cdef7c4bab8bd67529878a,Someecards,web,Free online greeting cards,New York,USA,40.737778,-73.979508,2007,,$350k
679,52cdef7c4bab8bd67529878d,mySupermarket,web,Online Shopping Comparison,New York,USA,53.478714,-2.244824,2006,,$32.8M
680,52cdef7c4bab8bd67529878d,mySupermarket,web,Online Shopping Comparison,London,GBR,51.513671,-0.159205,2006,,$32.8M
682,52cdef7c4bab8bd67529879a,Labmeeting,web,online platform for scientists,,USA,37.269175,-119.306607,2007,,$500k
683,52cdef7c4bab8bd67529879c,Trovit,ecommerce,,Barcelona,ESP,41.388769,2.1299487,2006,56.0,€600k
684,52cdef7c4bab8bd6752987a5,PixelCrayons,web,Web Design and Development Company,New York,USA,28.682042,77.087502,2004,200.0,$0
685,52cdef7c4bab8bd6752987a8,mediaFORGE,advertising,Ad retargeting & measurement,Salt Lake City,USA,40.634468,-111.804504,2005,,$1.5M
687,52cdef7c4bab8bd6752987cf,ProcServe,ecommerce,Hosted eProcurement Solutions ,London,GBR,51.494067,-0.146665,2006,55.0,$0
688,52cdef7c4bab8bd6752987d5,Mojiva,mobile,Mobile Advertising,New York,USA,40.7185614,-73.998662,2008,105.0,$45.8M
694,52cdef7c4bab8bd6752987f1,GitHub,software,Social Coding,San Francisco,USA,37.775196,-122.419204,2008,106.0,$100M
695,52cdef7c4bab8bd6752987f2,YUPPTV,games_video,"Watch your favorite live tv on internet,",Alpharetta,USA,17.415429,78.434422,2008,70.0,$0
696,52cdef7c4bab8bd6752987fd,Iminent,software,Instant messaging products,Paris,FRA,48.8522431,2.387422,2006,,€5.4M
697,52cdef7c4bab8bd675298812,AdXpose,advertising,Advertising Quality and Optimization,Seattle,USA,47.635354,-122.340459,2005,,$22.8M
700,52cdef7c4bab8bd675298837,Globant,software,Innovative Software Product Creation,Buenos Aires,ARG,-34.5967236,-58.3708904,2003,2800.0,$28M
701,52cdef7c4bab8bd675298837,Globant,software,Innovative Software Product Creation,Hopkinton,USA,42.2261823,-71.5174869,2003,2800.0,$28M
702,52cdef7c4bab8bd675298837,Globant,software,Innovative Software Product Creation,London,GBR,51.5205095,-0.0952197,2003,2800.0,$28M
703,52cdef7c4bab8bd675298837,Globant,software,Innovative Software Product Creation,San Francisco,USA,37.7819286,-122.4041764,2003,2800.0,$28M
705,52cdef7c4bab8bd675298837,Globant,software,Innovative Software Product Creation,Sao Paulo,BRA,-23.5606195,-46.6816579,2003,2800.0,$28M
706,52cdef7c4bab8bd675298837,Globant,software,Innovative Software Product Creation,Bogota,COL,4.7595921,-74.0632101,2003,2800.0,$28M
707,52cdef7c4bab8bd675298837,Globant,software,Innovative Software Product Creation,Montevideo,URY,-34.8836111,-56.1819444,2003,2800.0,$28M
709,52cdef7c4bab8bd675298837,Globant,software,Innovative Software Product Creation,La Plata,ARG,-34.6776448,-58.3840599,2003,2800.0,$28M
710,52cdef7c4bab8bd675298837,Globant,software,Innovative Software Product Creation,Tandil,ARG,-37.3281072,-59.1340915,2003,2800.0,$28M
711,52cdef7c4bab8bd675298837,Globant,software,Innovative Software Product Creation,Resistencia,ARG,-27.4533887,-58.9871056,2003,2800.0,$28M
712,52cdef7c4bab8bd675298837,Globant,software,Innovative Software Product Creation,Tucuman,ARG,-26.8007888,-65.3024825,2003,2800.0,$28M
713,52cdef7c4bab8bd675298837,Globant,software,Innovative Software Product Creation,Bahía Blanca,ARG,-38.7211371,-62.2690974,2003,2800.0,$28M
714,52cdef7c4bab8bd67529883c,RealMatch,advertising,Recruitment Ad Networks,New York,USA,39.047912,-77.19544,2004,,$11.7M
715,52cdef7c4bab8bd67529883d,Collective Intellect,enterprise,Real-time market intelligence,Boulder,USA,40.0186313,-105.2764361,2005,,$15.3M
716,52cdef7c4bab8bd675298841,AdShuffle,advertising,,Irving,USA,32.860831,-96.9403,2005,90.0,$0
717,52cdef7c4bab8bd675298850,Apture,web,Rich multimedia linking,San Francisco,USA,37.566042,-122.322954,2007,,$4.6M
719,52cdef7c4bab8bd675298857,InMobi,mobile,Mobile advertising network,San Francisco,USA,37.4465496,-122.1709208,2007,900.0,$216M
720,52cdef7c4bab8bd675298857,InMobi,mobile,Mobile advertising network,Singapore,SGP,1.284082,103.851942,2007,900.0,$216M
727,52cdef7c4bab8bd675298873,TigerLogic,social,Social Mobile Platforms,"Irvine,",USA,33.651624,-117.739227,2008,120.0,$0
728,52cdef7d4bab8bd6752988a5,Health Plan One,web,Online health insurance marketplace,Shelton,USA,41.262403,-73.135894,2006,,$6.5M
729,52cdef7d4bab8bd6752988ac,Modern Feed,games_video,,Los Angeles,USA,34.085749,-118.343791,2007,123.0,$3M
730,52cdef7d4bab8bd6752988ec,Retail Convergence,ecommerce,Portfolio of ecommerce applications,Boston,USA,42.35888,-71.05682,2008,,$25M
731,52cdef7d4bab8bd675298900,OPEN Sports Network,sports,Crowdsourced Sports Network,Deerfield Beach,USA,26.310509,-80.127087,2007,,$5.22M
732,52cdef7d4bab8bd675298908,TuneWiki,music,social media player,Santa Monica,USA,37.412577,-121.916861,2007,,$10M
733,52cdef7d4bab8bd67529891b,Spotify,music,Music streaming over the internet,Luxembourg,LUX,49.607295,6.121511,2006,5000.0,$533M
740,52cdef7d4bab8bd675298922,Adify,advertising,Self Service Ad Network,San Bruno,USA,37.629393,-122.424975,2006,120.0,$27M
741,52cdef7d4bab8bd675298925,InvenSense,semiconductor,motion processing solutions,San Jose,USA,37.407445,-122.019405,2003,400.0,$38M
746,52cdef7d4bab8bd675298927,Wigix,ecommerce,,,USA,37.09024,-95.712891,2007,,$5.34M
747,52cdef7d4bab8bd675298939,Center'd,web,Local Things To Do,Menlo Park,USA,37.452992,-122.185098,2006,,$10.4M
748,52cdef7d4bab8bd67529893a,Indochino,ecommerce,Custom Menswear,"Vancouver, BC",CAN,48.487589,-123.337608,2007,,$17.3M
749,52cdef7d4bab8bd67529893c,Kabam,games_video,Leader in Gaming,San Francisco,USA,37.3944561,-122.0785314,2006,650.0,$125M
751,52cdef7d4bab8bd67529893d,Pontiflex,advertising,Mobile and Online Signup Ads Platform,Brooklyn,USA,40.702692,-73.989613,2008,,$8.75M
753,52cdef7d4bab8bd675298954,ImportGenius,search,International Trade Records Search,Shanghai,CHN,31.251516,121.459147,2008,75.0,$0
754,52cdef7d4bab8bd675298955,Mind Candy,web,,London,GBR,51.471958,-0.147646,2003,,$10M
755,52cdef7d4bab8bd67529895a,kajeet,mobile,Teen Mobile Virtual Network,Bethesda,USA,38.9806,-77.1008,2003,,$65.9M
756,52cdef7d4bab8bd675298961,New Relic,software,SaaS Application Performance Management,San Francisco,USA,37.269175,-119.306607,2008,63.0,$175M
757,52cdef7d4bab8bd675298966,Velocify,software,Intelligent Sales Software,El Segundo,USA,33.9192583,-118.3952969,2004,125.0,$20.3M
758,52cdef7d4bab8bd675298970,Pixsta,web,Visual Search for ecommerce,London,GBR,51.51819,-0.208979,2010,,£3M
759,52cdef7d4bab8bd675298978,Tripwolf,web,Social travel guide and planner,Vienna,AUT,48.220357,16.355,2007,,$2.5M
760,52cdef7d4bab8bd67529897f,PatientsLikeMe,health,Healthcare Network,Cambridge,USA,42.3674989,-71.0793952,2004,200.0,$27M
761,52cdef7d4bab8bd675298985,Zinch,web,Connecting students with opportunities,San Francisco,USA,40.234451,-111.658656,2007,80.0,$5M
764,52cdef7d4bab8bd675298992,GodTube,games_video,video-driven Christian social network,Plano,USA,33.075067,-96.823962,2007,,$32.5M
767,52cdef7d4bab8bd6752989c3,OVGuide,games_video,guide to online video sites,Los Angeles,USA,34.052187,-118.243425,2006,,$7.98M
769,52cdef7d4bab8bd6752989d3,FuGen Solutions,web,,Sunnyvale,USA,37.384239,-122.012475,2006,,$925k
770,52cdef7d4bab8bd6752989e0,Talend,analytics,Open source integration software,Los Altos,USA,37.371908,-122.111711,2005,400.0,$102M
771,52cdef7d4bab8bd6752989e1,SnapLogic,enterprise,The Cloud Integration Company,San Mateo,USA,37.558245,-122.302654,2006,,$34.8M
772,52cdef7d4bab8bd6752989ea,Wirama,hardware,,Sunnyvale,USA,37.384239,-122.012475,2006,,$1M
773,52cdef7d4bab8bd6752989ec,EatLime,photo_video,Video/Photo upload and distribution site,San Francisco,USA,37.7749295,-122.4194155,2007,,$3.38M
774,52cdef7d4bab8bd6752989fd,Cartedge,software,,Midvale,USA,40.622919,-111.900917,2006,100.0,$0
775,52cdef7d4bab8bd675298a02,sevenload,games_video,Internet Television Social Network,Cologne,DEU,50.945289,6.921546,2006,67.0,€25M
776,52cdef7d4bab8bd675298a05,NewsCred,advertising,,New York,USA,46.223157,6.124424,2008,70.0,$21.8M
777,52cdef7d4bab8bd675298a05,NewsCred,advertising,,Dhaka,BGD,23.709921,90.407143,2008,70.0,$21.8M
778,52cdef7d4bab8bd675298a12,Boardwalktech,software,,Palo Alto,USA,37.431941,-122.103076,2004,75.0,$500k
779,52cdef7d4bab8bd675298a14,amazingtunes,games_video,,Newcastle Upon Tyne,GBR,54.971346,-1.611141,2006,,£1.4M
780,52cdef7d4bab8bd675298a27,ClairMail,finance,Mobile banking,San Rafael,USA,38.057107,-122.513742,2004,,$34.1M
781,52cdef7d4bab8bd675298a30,FIRST ROI,advertising,emarketing for banks & credit unions,Austin,USA,30.432421,-97.732059,2006,100.0,$0
782,52cdef7d4bab8bd675298a34,Appfolio,real_estate,Property management,Goleta,USA,34.433463,-119.863565,2006,,$30M
783,52cdef7d4bab8bd675298a35,BioIQ,biotech,,Santa Barbara,USA,34.424185,-119.704902,2005,,$493k
784,52cdef7d4bab8bd675298a3b,CitizenHawk,advertising,digital brand management solutions,Aliso Viejo,USA,33.571604,-117.734795,2006,,$3M
786,52cdef7d4bab8bd675298a50,Passenger,social,SaaS Private Online InnovatioCommunities,Los Angeles,USA,34.029956,-118.308943,2005,,$25.6M
788,52cdef7d4bab8bd675298a52,IP Commerce,network_hosting,Open commerce network,Denver,USA,39.74893,-104.99342,2005,,$44M
789,52cdef7d4bab8bd675298a53,TuneUp,music,,San Francisco,USA,37.7654195,-122.4119381,2007,,$15.6M
790,52cdef7d4bab8bd675298a55,SimpleTuition,finance,Student loan search,Boston,USA,42.297418,-71.214796,2005,,$31M
791,52cdef7d4bab8bd675298a56,Sparkroom,advertising,Marketing Analytics,Toronto,CAN,43.6683,-79.385969,2007,,$4M
792,52cdef7d4bab8bd675298a57,Tyfone,mobile,mobile financial services,Portland,USA,45.5105,-122.674995,2004,,$5.3M
793,52cdef7d4bab8bd675298aa0,Raydiance,manufacturing,,Chevy Chase,USA,38.96524,-77.083389,2004,,$49.3M
794,52cdef7d4bab8bd675298aaf,Tiny Prints,ecommerce,Premium Personalized Stationery,Sunnyvale,USA,37.395902,-122.056739,2004,250.0,$0
796,52cdef7d4bab8bd675298ab2,BusinessCard2,web,Virtual Business Cards,Minneapolis,USA,45.004089,-93.250179,2006,,$1.7M
797,52cdef7d4bab8bd675298abb,SocialVibe,advertising,Engagement Advertising,Los Angeles,USA,34.0815238,-118.3826743,2007,80.0,$43.9M
801,52cdef7d4bab8bd675298ae3,NextBio,enterprise,Life science Informatics,Santa Clara,USA,37.316653,-122.05074,2004,75.0,$16.1M
802,52cdef7d4bab8bd675298ae4,Parascale,network_hosting,Cloud Storage software ,Cupertino,USA,37.316653,-122.05074,2005,,$11.4M
803,52cdef7d4bab8bd675298ae6,Zoosk,social,Behavioral Matchmaking(TM),San Francisco,USA,37.7726402,-122.4099154,2007,,$61.6M
804,52cdef7d4bab8bd675298ae7,Aquantia,semiconductor,Semiconductor Company,Milpitas,USA,37.4130233,-121.9175461,2004,,$138M
805,52cdef7d4bab8bd675298ae8,Aprius,hardware,Server technology,Washington,USA,47.6409655,-117.5357108,2006,,$22M
806,52cdef7d4bab8bd675298aff,Kenriche Technologies,advertising,,Chennai,IND,13.1620756,80.2586406,2006,55.0,$0
808,52cdef7d4bab8bd675298b05,ClearContext,software,,Englewood,USA,39.6523451,-104.9832304,2003,,$500k
809,52cdef7d4bab8bd675298b1f,Ztail,ecommerce,resale price protection,Palo Alto,USA,37.44931,-122.160011,2005,,$1.5M
810,52cdef7d4bab8bd675298b26,AirCell,messaging,,Itasca,USA,41.989344,-88.004903,2005,,$276M
811,52cdef7d4bab8bd675298b29,Row44,network_hosting,aircraft broadband connectivity,Westlake Village,USA,34.143152,-118.80146,2004,,$103M
813,52cdef7d4bab8bd675298b37,Bizo,advertising,Business Audience Marketing ,San Francisco,USA,37.7911186,-122.4011706,2008,66.0,$28.5M
814,52cdef7d4bab8bd675298b39,Lightfleet,hardware,,Camas,USA,45.63256,-122.462093,2003,55.0,$0
815,52cdef7d4bab8bd675298b4c,Sonico,social,Voice and digital entertainment websites,Buenos Aires,ARG,-34.611781,-58.417309,2007,84.0,$6M
818,52cdef7d4bab8bd675298b4f,eBureau,analytics,,St. Cloud,USA,45.560899,-94.159452,2004,55.0,$38M
819,52cdef7d4bab8bd675298b52,Moblyng,games_video,HTML5 Social Games,Redwood City,USA,37.453665,-122.229069,2005,,$19.1M
820,52cdef7d4bab8bd675298b60,Sirtris Pharmaceuticals,biotech,Biopharmaceutical Company,Cambridge,USA,42.363567,-71.091189,2004,,$82M
821,52cdef7d4bab8bd675298b66,Knewton,education,Adaptive Learning Platform,New York,USA,40.7310476,-74.0078134,2008,145.0,$105M
822,52cdef7d4bab8bd675298b6a,AtHoc,security,Interactive Crisis Communication,San Mateo,USA,37.560747,-122.284001,2005,150.0,$8.2M
823,52cdef7d4bab8bd675298b76,CoverItLive,web,Liveblogging tool,Austin,USA,43.6378576,-79.4255306,2007,,$1M
824,52cdef7d4bab8bd675298ba8,Campus Explorer,search,college search engine,Santa Monica,USA,34.031178,-118.463841,2007,,$7.25M
825,52cdef7d4bab8bd675298bb5,C4Media,other,,Toronto,CAN,43.670233,-79.386755,2005,61.0,$0
826,52cdef7d4bab8bd675298bd9,PurePlay,games_video,play-for-cash online poker game,San Francisco,USA,37.775196,-122.419204,2004,,$15M
827,52cdef7d4bab8bd675298c05,GreenNote,web,Student Lending Site,Mather,USA,37.492685,-122.227765,2007,65.0,$4.2M
828,52cdef7d4bab8bd675298c16,Aptera,automotive,,Carlsbad,USA,33.133524,-117.254593,2003,,$36.3M
830,52cdef7d4bab8bd675298c2a,M:Metrics,mobile,Mobile Media Measurements,Seattle,USA,47.620716,-122.347533,2004,,$18M
831,52cdef7d4bab8bd675298c2f,B-hive Networks,software,Infrastructure Manager,San Mateo,USA,37.536402,-122.325129,2005,,$7.5M
832,52cdef7d4bab8bd675298c47,Intelius,web,,Bellevue,USA,47.614723,-122.196262,2003,131.0,$0
834,52cdef7d4bab8bd675298c61,TeleFlip,mobile,Mobile Email,Santa Monica,USA,34.01695,-118.451933,2004,,$4.9M
836,52cdef7d4bab8bd675298c7d,Jigsaw,web,,San Mateo,USA,37.552806,-122.291602,2003,,$18M
837,52cdef7d4bab8bd675298c7f,NetProspex,analytics,Verified B2B Contacts,Waltham,USA,42.375034,-71.251069,2006,,$14.5M
838,52cdef7d4bab8bd675298c81,Backblaze,software,,Palo Alto,USA,37.44296,-122.151198,2007,,$5M
840,52cdef7d4bab8bd675298c86,Ozmo Devices,hardware,WiFi Communication Technology Developer,Palo Alto,USA,37.446152,-122.117722,2004,,$37.5M
845,52cdef7d4bab8bd675298caa,TuneCore,games_video,,Brooklyn,USA,40.704382,-73.986572,2005,,$7M
846,52cdef7d4bab8bd675298cae,Cooliris,web,Immersive media experiences,Palo Alto,USA,37.421447,-122.141604,2006,,$28.1M
847,52cdef7d4bab8bd675298cba,Gamook,games_video,Online Game Sharing,Menlo Park,USA,37.41924,-122.208414,2008,,$1.5M
848,52cdef7d4bab8bd675298cc1,Vindicia,analytics,SaaS Marketing & Billing,Belmont,USA,37.538418,-122.252115,2003,100.0,$37.6M
849,52cdef7d4bab8bd675298cc3,WSO2,software,Lean enterprise middleware vendor,Palo Alto,USA,37.390918,-122.080843,2005,228.0,$20.5M
850,52cdef7d4bab8bd675298cc3,WSO2,software,Lean enterprise middleware vendor,,GBR,50.8472228,-0.919424,2005,228.0,$20.5M
852,52cdef7d4bab8bd675298cce,Dizzywood,games_video,Tween Virtual World,,USA,37.269175,-119.306607,2007,,$2M
853,52cdef7d4bab8bd675298cd0,BumpTop,software,3D Desktops,Toronto,CAN,43.648786,-79.3777473,2007,,$1.65M
856,52cdef7d4bab8bd675298d3f,The Receivables Exchange,ecommerce,real-time trading of accounts receivable,New York,USA,40.757651,-73.9752768,2007,70.0,$39.8M
857,52cdef7d4bab8bd675298d41,Sense Networks,mobile,Mobile location advertising,New York City,USA,40.724647,-73.999636,2003,,$9M
858,52cdef7d4bab8bd675298d46,Brainware,software,,Ashburn,USA,39.0601,-77.464018,2006,65.0,$0
859,52cdef7d4bab8bd675298d5f,Practice Fusion,health,"Free,Web-based Electronic Health Records",San Francisco,USA,37.7886717,-122.392725,2005,280.0,$155M
860,52cdef7d4bab8bd675298d6d,Tribe,web,,Los Gatos,USA,37.2399312,-121.9609305,2003,,$3.05M
861,52cdef7d4bab8bd675298d70,HireVue,web,Interview Software and Services,South Jordan,USA,40.554467,-111.9137871,2004,,$53M
862,52cdef7d4bab8bd675298d7a,Codefast,software,Automated Software Development,San Jose,USA,37.316466,-121.873881,2004,,$6.5M
863,52cdef7d4bab8bd675298d7e,RRD USA,mobile,,New York,USA,40.748342,-73.984606,2004,60.0,$0
864,52cdef7d4bab8bd675298d86,Accertify,security,Fraud prevention tools for merchants,Itasca,USA,42.048203,-88.031569,2007,,$4.7M
865,52cdef7d4bab8bd675298d89,HealthiNation,web,Health and wellness video provider,New York,USA,40.739341,-73.988357,2005,,$12M
870,52cdef7d4bab8bd675298d9a,Odnoklassniki,public_relations,Russian Social Network,Moscow,RUS,51.762981,114.787903,2006,207.0,$0
873,52cdef7d4bab8bd675298da1,Socialcast,enterprise,Social Business Communication Software,San Francisco,USA,37.7819267,-122.3932389,2005,,$9.4M
874,52cdef7d4bab8bd675298daf,Hyperic,software,management software for Web apps,Palo Alto,USA,37.4027811,-122.1441615,2004,,$9.9M
875,52cdef7d4bab8bd675298dda,Stardoll,games_video,Mature Tween Virtual Website,Stockholm,SWE,59.345553,18.037611,2004,,$10M
877,52cdef7d4bab8bd675298de3,Optaros,consulting,consulting and systems integration,Boston,USA,42.356812,-71.058185,2004,200.0,$38.5M
878,52cdef7d4bab8bd675298e0a,Making Sense,software,Creating Enjoyable Apps,San Antonio,USA,29.516352,-98.43676,2006,100.0,$0
879,52cdef7d4bab8bd675298e0a,Making Sense,software,Creating Enjoyable Apps,Buenos Aires,ARG,-34.5892808,-58.43297,2006,100.0,$0
880,52cdef7d4bab8bd675298e0a,Making Sense,software,Creating Enjoyable Apps,Mar del Plata,ARG,-38.0060917,-57.5582444,2006,100.0,$0
881,52cdef7d4bab8bd675298e1a,Aurora Biofuels,cleantech,grows algae for producing bio-oil,,USA,37.6266932,-122.1169032,2007,,$102M
882,52cdef7d4bab8bd675298e1a,Aurora Biofuels,cleantech,grows algae for producing bio-oil,Hayward,USA,37.6688205,-122.0807964,2007,,$102M
889,52cdef7d4bab8bd675298e35,GARA Web Hosting,web,,Troy,USA,42.585951,-83.126814,2006,480.0,$0
891,52cdef7d4bab8bd675298e46,GET Holding NV,enterprise,Business to business perishable products,Zaandijk,NLD,52.475393,4.812833,2007,78.0,€4.25M
893,52cdef7d4bab8bd675298e64,InsideView,enterprise,Sales Intelligence,San Francisco,USA,37.764169,-122.402021,2005,150.0,$56.5M
895,52cdef7d4bab8bd675298e81,Bootup Labs,consulting,startup seed accelerator,Vancouver,CAN,49.2846085,-123.110394,2008,,C$350k
896,52cdef7d4bab8bd675298e9d,Ziplocal,search,Online Local Serach Engine,Toronto,CAN,43.650105,-79.396805,2006,,C$15.3M
897,52cdef7d4bab8bd675298e9d,Ziplocal,search,Online Local Serach Engine,Montreal,CAN,45.498179,-73.565316,2006,,C$15.3M
898,52cdef7d4bab8bd675298ea5,HIRO Media,advertising,,Tel Aviv,ISR,32.0554,34.7595,2004,,$5M
899,52cdef7d4bab8bd675298eb0,SpikeSource,software,software certification company,Mountain View,USA,37.510805,-122.203744,2004,,$68M
900,52cdef7d4bab8bd675298eb6,Blueprint Software Systems,enterprise,Requirements Management Software,Toronto,CAN,43.65101,-79.381254,2004,100.0,$30.2M
901,52cdef7d4bab8bd675298ee2,NameMedia,advertising,,Waltham,USA,42.389557,-71.260509,2005,150.0,$0
902,52cdef7d4bab8bd675298f02,Samba Tech,enterprise,Online Video Solutions,Belo Horizonte,BRA,-19.815731,-43.954223,2005,60.0,$3M
903,52cdef7d4bab8bd675298f03,Alereon,semiconductor,Fabless Semiconductor Company,Austin,USA,30.375563,-97.78192,2003,75.0,$73M
904,52cdef7d4bab8bd675298f04,AdParlor,advertising,Facebook Advertising,"Toronto, Ontario",CAN,43.8356434,-79.4418543,2008,300.0,$0
905,52cdef7d4bab8bd675298f04,AdParlor,advertising,Facebook Advertising,New York,USA,40.7262412,-74.0073271,2008,300.0,$0
906,52cdef7d4bab8bd675298f04,AdParlor,advertising,Facebook Advertising,"Covent Garden, London",GBR,51.5119883,-0.1260146,2008,300.0,$0
907,52cdef7d4bab8bd675298f04,AdParlor,advertising,Facebook Advertising,San Francisco,USA,37.78866,-122.401406,2008,300.0,$0
908,52cdef7d4bab8bd675298f04,AdParlor,advertising,Facebook Advertising,Shanghai,CHN,31.224588,121.480029,2008,300.0,$0
909,52cdef7d4bab8bd675298f04,AdParlor,advertising,Facebook Advertising,Paris,FRA,48.8506065,2.3797825,2008,300.0,$0
910,52cdef7d4bab8bd675298f18,VBS TV,games_video,,Brooklyn,USA,40.720764,-73.957968,2006,100.0,$10M
911,52cdef7d4bab8bd675298f2f,FlyCast,mobile,News and Music Streaming Technology,Lancaster,USA,40.039353,-76.307448,2006,,$2.1M
912,52cdef7d4bab8bd675298f3a,LicenseStream,enterprise,licensing automation platform,New York,USA,40.7309047,-74.006311,2003,,$16M
913,52cdef7d4bab8bd675298f42,OkCupid,web,Free Online Dating,New York,USA,40.7368158,-73.9955426,2003,,$6M
914,52cdef7d4bab8bd675298f53,MarkLogic,enterprise,Enterprise NoSQL Database,San Carlos,USA,37.506272,-122.246867,2003,240.0,$71.2M
915,52cdef7d4bab8bd675298f85,RightScale,enterprise,Cloud management solution,Santa Barbara,USA,34.420316,-119.688412,2006,,$42.5M
918,52cdef7d4bab8bd675298f8d,Photobucket,web,Image hosting and sharing website,Denver,USA,47.601803,-122.332085,2003,100.0,$33.7M
919,52cdef7d4bab8bd675298f9b,Cleartrip,travel,,Mumbai,IND,18.9978594,72.8367776,2006,500.0,$51M
920,52cdef7d4bab8bd675298fa0,Mendix,enterprise,The App Platform for the Enterprise,Rotterdam,NLD,51.9047086,4.4574464,2005,150.0,$13M
922,52cdef7d4bab8bd675298fae,Drimki,ecommerce,,Paris,FRA,48.856667,2.350987,2007,,$5.14M
923,52cdef7d4bab8bd675298fdf,Neocleus,enterprise,IT and Virtualization tools,Jersey City,USA,40.716438,-74.033872,2006,,$28.1M
924,52cdef7d4bab8bd675298fe9,Lehigh Technologies,cleantech,Rubber recycling,Tucker,USA,26.215648,-81.80187,2003,,$55.5M
925,52cdef7d4bab8bd675298fef,Avature,software,,New York,USA,40.706271,-74.009242,2004,120.0,$0
928,52cdef7d4bab8bd675299011,Aylus Networks,mobile,multimedia sharing solutions,Westford,USA,42.559391,-71.432373,2005,,$50.7M
930,52cdef7d4bab8bd67529902c,plista,advertising,recommendation and advertising network,Berlin,DEU,52.5283614,13.4124563,2008,100.0,$3.8M
931,52cdef7d4bab8bd67529902d,Affinegy,software,,Austin,USA,30.271891,-97.816472,2003,,$550k
933,52cdef7d4bab8bd675299035,Spendji,public_relations,,Royal Oak,USA,42.507486,-83.175991,2007,,$300k
934,52cdef7d4bab8bd675299035,Spendji,public_relations,,Berkeley,USA,37.87168,-122.269494,2007,,$300k
936,52cdef7d4bab8bd6752990b4,Flowgram,web,Browser-based screencast,San Francisco,USA,37.7710177,-122.4025976,2007,,$1.3M
937,52cdef7d4bab8bd6752990dc,Neato Robotics,hardware,Home robots,Newark,USA,37.414232,-122.0875443,2005,,$26.2M
938,52cdef7d4bab8bd6752990e8,Willard John Thomas Associates,consulting,Financial Technology Consulting,Santiago,CHL,-33.42536,-70.566466,2008,60.0,$0
939,52cdef7d4bab8bd6752990e8,Willard John Thomas Associates,consulting,Financial Technology Consulting,Calcutta,IND,22.572646,88.363895,2008,60.0,$0
940,52cdef7d4bab8bd6752990e8,Willard John Thomas Associates,consulting,Financial Technology Consulting,New Delhi,IND,28.635308,77.22496,2008,60.0,$0
941,52cdef7d4bab8bd6752990e8,Willard John Thomas Associates,consulting,Financial Technology Consulting,New York,USA,40.74727,-73.980064,2008,60.0,$0
942,52cdef7d4bab8bd675299107,YouMail,messaging,,Irvine,USA,33.58273,-117.727468,2007,,$12.7M
943,52cdef7d4bab8bd675299122,PurpleTalk,mobile,Mobile Apps and Product Development,Dallas,USA,37.387712,-121.990755,2008,350.0,$0
947,52cdef7d4bab8bd67529913d,Mobiquest,mobile,,Singapore,SGP,1.326725,103.894124,2007,300.0,$0
948,52cdef7d4bab8bd675299143,Medialets,advertising,Mobile 3rd Party Ad Server & Rich Media,New York,USA,40.756054,-73.986951,2008,60.0,$28.4M
949,52cdef7d4bab8bd675299143,Medialets,advertising,Mobile 3rd Party Ad Server & Rich Media,San Francisco,USA,37.775196,-122.419204,2008,60.0,$28.4M
950,52cdef7d4bab8bd67529914b,Bitly,web,URL shortener,New York,USA,40.74034,-74.00721,2008,,$31.4M
951,52cdef7d4bab8bd67529916b,Flat World Knowledge,software,Open College Textbooks,Irvington,USA,41.091306,-73.923422,2007,,$26.2M
952,52cdef7d4bab8bd675299196,Involver,software,Social Marketing Platform,San Francisco,USA,37.788653,-122.401333,2007,,$11.3M
953,52cdef7d4bab8bd67529919a,Videoplaza,advertising,Video Ad Management,London,GBR,51.5212481,-0.1020894,2007,70.0,€15.9M
954,52cdef7d4bab8bd67529919a,Videoplaza,advertising,Video Ad Management,Stockholm,SWE,59.3351833,18.0333601,2007,70.0,€15.9M
955,52cdef7d4bab8bd67529919a,Videoplaza,advertising,Video Ad Management,Berlin,DEU,52.5372765,13.3787413,2007,70.0,€15.9M
956,52cdef7d4bab8bd67529919a,Videoplaza,advertising,Video Ad Management,Singapore,SGP,1.2821008,103.8508327,2007,70.0,€15.9M
957,52cdef7d4bab8bd67529919a,Videoplaza,advertising,Video Ad Management,Madrid,ESP,40.4596242,-3.6923285,2007,70.0,€15.9M
958,52cdef7d4bab8bd67529919f,DaWanda,network_hosting,,Berlin,DEU,52.52647,13.3892214,2006,,€4M
959,52cdef7d4bab8bd6752991bc,Riot Games,games_video,Video game developer,Culver City,USA,34.0025911,-118.3942383,2006,,$8M
960,52cdef7d4bab8bd6752991ea,Zendesk,software,customer service solution,San Francisco,USA,55.676294,12.568116,2007,400.0,$85.5M
961,52cdef7d4bab8bd6752991ee,Streetline,hardware,Connecting the Real World,San Francisco,USA,37.782085,-122.409747,2005,,$40M
962,52cdef7d4bab8bd6752991f5,neoSaej,web,,Burlington,USA,42.485691,-71.19862,2006,,$13.1M
964,52cdef7d4bab8bd675299227,LiquidTalk,software,mobile workforce solutions,Chicago,USA,41.831001,-87.626918,2006,,$2.43M
967,52cdef7d4bab8bd67529926a,BlogHer,web,female blog community,Belmont,USA,37.491356,-122.228843,2005,,$15.5M
968,52cdef7d4bab8bd675299271,Devshop,software,,"Ottawa, ON",CAN,45.427672,-75.693788,2005,,$280k
969,52cdef7d4bab8bd6752992a1,Cherwell Software,software,,Colorado Springs,USA,39.010667,-104.81628,2004,,$25M
970,52cdef7d4bab8bd6752992a8,Lexy,games_video,audio content distribution platform,San Francisco,USA,37.786906,-122.397672,2006,,$1.71M
971,52cdef7d4bab8bd6752992ac,SingleHop,network_hosting,managed internet infrastructure,Chicago,USA,41.877867,-87.634781,2006,,$27.5M
974,52cdef7d4bab8bd6752992f0,Minted,ecommerce,marketplace for design and art,San Francisco,USA,37.797435,-122.403175,2007,115.0,$52.7M
975,52cdef7d4bab8bd6752992fd,Appirio,enterprise,Cloud Computing Solution Provider,San Francisco,USA,37.5552776,-122.2997532,2006,500.0,$80.7M
976,52cdef7d4bab8bd675299304,Kontagent,analytics,Mobile Analytics,San Francisco,USA,37.7797255,-122.4020593,2007,80.0,$17.5M
978,52cdef7d4bab8bd675299327,MapVersa,software,India Maps Data Provider,San Diego,USA,32.902266,-117.20834,2008,110.0,$0
979,52cdef7d4bab8bd67529932a,Buysight,advertising,,Palo Alto,USA,37.425359,-122.1389633,2008,,$24M
980,52cdef7d4bab8bd67529933d,Eye-Fi,hardware,Consumer Electronics,Mountain View,USA,37.392428,-122.072479,2005,,$36.5M
981,52cdef7d4bab8bd675299341,Qumu,software,Enterprise Video Communications,San Bruno,USA,37.630551,-122.422113,2003,150.0,$24.8M
982,52cdef7d4bab8bd67529934a,GreenRoad Technologies,cleantech,in-vehicle sensors/analysis,Redwood Shores,USA,37.527315,-122.263434,2006,,$58.4M
985,52cdef7d4bab8bd675299366,CarbonFlow,software,,San Francsico,USA,37.779097,-122.39365,2006,,$8.47M
986,52cdef7d4bab8bd675299366,CarbonFlow,software,,Sydney,AUS,-33.867139,151.207114,2006,,$8.47M
987,52cdef7d4bab8bd675299366,CarbonFlow,software,,London,GBR,51.500152,-0.126236,2006,,$8.47M
988,52cdef7d4bab8bd67529936c,DATAllegro,network_hosting,Data Warehousing Application Provider,Aliso Viejo,USA,33.581675,-117.726176,2003,,$57.1M
989,52cdef7d4bab8bd67529936f,EffectiveUI,software,,Denver,USA,39.755152,-104.990968,2005,97.0,$0
990,52cdef7d4bab8bd67529936f,EffectiveUI,software,,Rochester,USA,43.158821,-77.585297,2005,97.0,$0
992,52cdef7d4bab8bd675299376,Yatra online,travel,,Gurgaon,IND,28.4404308,77.0789194,2006,1000.0,$22M
993,52cdef7d4bab8bd675299397,Huddler,web,We Know Communities.,San Francisco,USA,37.7893215,-122.4013624,2007,52.0,$22.8M
994,52cdef7d4bab8bd6752993a7,Prezi,software,Presentation Software,Budapest,HUN,47.490346,19.059078,2009,110.0,$14.3M
997,52cdef7d4bab8bd6752993ba,Livebookings,advertising,Restaurant reservations and marketing,London,GBR,51.5112139,-0.1198244,2005,160.0,$63M
998,52cdef7d4bab8bd6752993e9,Admeld,advertising,Publisher Ad Platform,New York,USA,40.755253,-73.992152,2007,,$30M
1001,52cdef7d4bab8bd6752993ea,Halosys,software,,Santa Clara,USA,37.3858901,-121.9708095,2005,62.0,$0
1005,52cdef7d4bab8bd6752993f6,Industria,software,Systems integrator,London,GBR,51.500152,-0.126236,2003,100.0,$0
1008,52cdef7d4bab8bd675299402,Anvato,games_video,Video Platform Live and OnDemand,Mountain View,USA,37.400689,-122.0572,2007,,$2.55M
1011,52cdef7d4bab8bd675299421,ngmoco,games_video,Games for the iPhone,San Francisco,USA,37.7705096,-122.4015807,2008,150.0,$44.8M
1012,52cdef7d4bab8bd67529942a,Local Marketers,web,,Seattle,USA,47.5989681,-122.3329036,2005,,$4.1M
1015,52cdef7d4bab8bd675299458,AppNexus,advertising,Real-time ad buying platform,New York,USA,40.7250495,-73.9970912,2007,,$141M
1017,52cdef7d4bab8bd675299463,Dataupia,enterprise,Data warehouse appliance,Cambridge,USA,42.3988457,-71.1404961,2005,60.0,$41M
1018,52cdef7d4bab8bd67529946d,Conductor,search,natural search,New York,USA,40.746332,-73.982596,2007,55.0,$33.6M
1031,52cdef7d4bab8bd67529949e,Pricelock,cleantech,,Redwood City,USA,37.518539,-122.254275,2006,,$12M
1032,52cdef7d4bab8bd6752994a6,GetYourGuide,travel,Booking website for tours & activities,Zurich,CHE,47.3912899,8.5082891,2009,75.0,$16M
1035,52cdef7d4bab8bd6752994b1,Sharethrough,advertising,Native Advertising,San Francisco,USA,37.7976785,-122.4018163,2008,80.0,$11M
1041,52cdef7d4bab8bd6752994f6,dynaTrace software,software,application performance management,Waltham,USA,42.391389,-71.270987,2005,,$21.9M
1042,52cdef7d4bab8bd6752994f6,dynaTrace software,software,application performance management,Linz,AUT,48.3295209,14.3194706,2005,,$21.9M
1043,52cdef7d4bab8bd675299506,SpiderOak,web,,Northbrook,USA,42.142261,-87.862305,2007,,$2M
1044,52cdef7d4bab8bd675299533,J-Curve Technologies,other,,Phoenix,USA,33.451235,-111.99253,2006,100.0,$0
1045,52cdef7d4bab8bd675299534,Hyper9,software,Virtual Infrastructure Management,Austin,USA,30.387353,-97.753163,2006,,$15.2M
1046,52cdef7d4bab8bd675299535,Koolanoo Group,web,China Internet & New Media Investments,Beijing,CHN,39.905556,116.395833,2005,280.0,$32M
1048,52cdef7d4bab8bd67529953e,IntelePeer,enterprise,Cloud-based communication services,San Mateo,USA,37.536394,-122.326141,2003,,$41.1M
1049,52cdef7d4bab8bd67529953e,IntelePeer,enterprise,Cloud-based communication services,Denver,USA,39.755363,-105.008551,2003,,$41.1M
1050,52cdef7d4bab8bd675299541,RoyaltyShare,public_relations,,San Diego,USA,32.893366,-117.200035,2005,,$11.5M
1052,52cdef7d4bab8bd675299548,InstallFree,software,,Stamford,USA,41.073034,-73.550452,2006,,$11.5M
1054,52cdef7d4bab8bd675299573,Centrify,network_hosting,identity and mobile device management,Sunnyvale,USA,37.390918,-122.080843,2004,160.0,$52M
1055,52cdef7d4bab8bd675299583,Integrate,software,Marketing Software and Media Services,Scottsdale,USA,40.7481039,-74.0353787,2010,120.0,$34.8M
1060,52cdef7d4bab8bd67529958e,Pioco,mobile,,Shanghai,CHN,31.222222,121.475,2006,54.0,$0
1063,52cdef7d4bab8bd6752995b1,NexPlanar,semiconductor,CMP pad Producer,Hillsboro,USA,45.546481,-122.9021288,2008,,$43M
1066,52cdef7d4bab8bd6752995ba,ZManda,software,backup and recovery software,Sunnyvale,USA,37.3725243,-122.035963,2005,,$13M
1071,52cdef7d4bab8bd6752995c7,Nextiva,enterprise,Business VoIP Phone Systems,Scottsdale,USA,33.555878,-111.8963228,2005,200.0,$0
1073,52cdef7d4bab8bd6752995ea,Synchronica,mobile,Mobile Email Synchronization,Berlin,DEU,52.494722,13.398514,2004,,$17.6M
1074,52cdef7d4bab8bd6752995ea,Synchronica,mobile,Mobile Email Synchronization,Raleigh,USA,35.868807,-78.615986,2004,,$17.6M
1075,52cdef7d4bab8bd6752995ea,Synchronica,mobile,Mobile Email Synchronization,Campbell,USA,37.275604,-121.952034,2004,,$17.6M
1077,52cdef7d4bab8bd6752995ef,Palo Alto Networks,security,Hardware Firewalls,Santa Clara,USA,37.410439,-122.016125,2005,,$329M
1078,52cdef7d4bab8bd6752995f1,Envysion,software,web-based video management software,Louisville,USA,39.97764,-105.13114,2006,,$13.3M
1079,52cdef7d4bab8bd675299607,BitWave,mobile,,Lowell,USA,42.616152,-71.325869,2004,,$27.8M
1080,52cdef7d4bab8bd675299638,KoolSpan,security,Chip-based security,Bethesda,USA,38.987594,-77.0974791,2003,,$37.7M
1084,52cdef7d4bab8bd675299686,Lyft,software,Your friend with a car™,San Francisco,USA,37.7899027,-122.4007846,2007,180.0,$82.5M
1086,52cdef7d4bab8bd67529969d,Demandbase,analytics,,San Francisco,USA,37.796843,-122.400346,2006,80.0,$33M
1087,52cdef7d4bab8bd6752996ad,Jumptap,mobile,Mobile advertising solutions,Boston,USA,42.368633,-71.075305,2005,,$122M
1088,52cdef7d4bab8bd6752996ad,Jumptap,mobile,Mobile advertising solutions,New York City,USA,40.751478,-73.980305,2005,,$122M
1091,52cdef7d4bab8bd6752996bc,Popego,advertising,,San Francisco,USA,37.778687,-122.421242,2007,120.0,$0
1092,52cdef7d4bab8bd6752996cd,Spotmau Corporation,software,,Humble,USA,29.985528,-95.3082988,2006,70.0,$0
1093,52cdef7d4bab8bd6752996d1,Thomson Reuters,public_relations,Intelligent Information Provider,New York,USA,40.7564318,-73.9871847,2008,50000.0,$0
1095,52cdef7d4bab8bd6752996fe,Yammer,enterprise,Enterprise Social Network,San Francisco,USA,37.776246,-122.4179223,2008,400.0,$142M
1097,52cdef7d4bab8bd675299701,GoPlanit,web,online travel planning,san francisco,USA,37.791576,-122.399363,2007,,$500k
1098,52cdef7d4bab8bd67529970d,PostPath,web,email and collaboration servers,Mountain View,USA,37.390501,-122.081151,2003,,$24.3M
1099,52cdef7d4bab8bd67529973c,TRUECar,transportation,Car Buying Marketplace,Santa Monica,USA,34.0152942,-118.4965479,2005,303.0,$352M
1101,52cdef7d4bab8bd67529973c,TRUECar,transportation,Car Buying Marketplace,Santa Monica,USA,34.012985,-118.49567,2005,303.0,$352M
1102,52cdef7d4bab8bd67529973c,TRUECar,transportation,Car Buying Marketplace,Austin,USA,30.3096936,-97.9390133,2005,303.0,$352M
1103,52cdef7d4bab8bd67529973c,TRUECar,transportation,Car Buying Marketplace,Santa Barbara,USA,34.4405218,-119.7445783,2005,303.0,$352M
1104,52cdef7d4bab8bd675299782,Intela,advertising,Global Performance Marketing,Boulder,USA,40.058448,-105.278785,2006,70.0,$13.3M
1105,52cdef7d4bab8bd675299782,Intela,advertising,Global Performance Marketing,London,GBR,51.5139758,-0.1230127,2006,70.0,$13.3M
1107,52cdef7d4bab8bd675299785,Picateers,web,,San Mateo,USA,37.5574,-122.301914,2005,,$12.1M
1108,52cdef7d4bab8bd675299786,SailPoint Technologies,enterprise,identity governance software,Austin,USA,30.355703,-97.797117,2005,,$25.8M
1110,52cdef7d4bab8bd6752997bf,Big Stage,web,3d imaging,South Pasadena,USA,34.111471,-118.174878,2008,,$10.6M
1112,52cdef7d4bab8bd6752997d4,Mimosa Systems,software,Data Archiving Software,Santa Clara,USA,37.379684,-121.97514,2003,,$53.8M
1113,52cdef7d4bab8bd6752997d4,Mimosa Systems,software,Data Archiving Software,Ottawa,CAN,45.343475,-75.7186146,2003,,$53.8M
1114,52cdef7d4bab8bd6752997d4,Mimosa Systems,software,Data Archiving Software,Reading,GBR,51.461674,-0.93391,2003,,$53.8M
1115,52cdef7d4bab8bd6752997d4,Mimosa Systems,software,Data Archiving Software,Boulogne Billancourt,FRA,48.8386994,2.2376715,2003,,$53.8M
1116,52cdef7d4bab8bd6752997d4,Mimosa Systems,software,Data Archiving Software,Aschheim-Dornach,DEU,48.1520662,11.6823188,2003,,$53.8M
1121,52cdef7d4bab8bd6752997fa,Lolapps,web,,San Francisco,USA,37.7870923,-122.3999719,2008,65.0,$4M
1122,52cdef7d4bab8bd6752997fc,Stylesight,fashion,SaaS Trend Forecasting Platform,NEW YORK,USA,40.730763,-74.000827,2004,200.0,$26M
1123,52cdef7d4bab8bd675299810,Connectbeam,software,software applications,Mountain View,USA,37.401818,-122.050565,2005,,$3.5M
1124,52cdef7d4bab8bd675299836,Taglocity,enterprise,,Vancouver,CAN,49.2812342,-123.1043395,2007,,$1.2M
1125,52cdef7d4bab8bd67529983a,Helpstream,web,,Mountain View,USA,37.418262,-122.087859,2004,,$8.6M
1127,52cdef7d4bab8bd67529984e,Chegg,education,Online textbook rental,Santa Clara,USA,37.352313,-121.967982,2005,,$252M
1128,52cdef7d4bab8bd67529984f,Xactly Corp,analytics,Incent Right.,San Jose,USA,37.334738,-121.891516,2005,,$73.9M
1129,52cdef7d4bab8bd67529984f,Xactly Corp,analytics,Incent Right.,Boston,USA,42.355077,-71.056928,2005,,$73.9M
1132,52cdef7d4bab8bd675299853,Hangout Industries,games_video,,Boston,USA,42.352835,-71.0609612,2005,,$12M
1134,52cdef7d4bab8bd6752998bd,J-Curve Technologies,other,,Phoenix,USA,33.451235,-111.99253,2006,100.0,$0
1135,52cdef7d4bab8bd6752998be,Hyper9,software,Virtual Infrastructure Management,Austin,USA,30.387353,-97.753163,2006,,$15.2M
1136,52cdef7d4bab8bd6752998bf,Koolanoo Group,web,China Internet & New Media Investments,Beijing,CHN,39.905556,116.395833,2005,280.0,$32M
1138,52cdef7d4bab8bd6752998c8,IntelePeer,enterprise,Cloud-based communication services,San Mateo,USA,37.536394,-122.326141,2003,,$41.1M
1139,52cdef7d4bab8bd6752998c8,IntelePeer,enterprise,Cloud-based communication services,Denver,USA,39.755363,-105.008551,2003,,$41.1M
1140,52cdef7d4bab8bd6752998cb,RoyaltyShare,public_relations,,San Diego,USA,32.893366,-117.200035,2005,,$11.5M
1142,52cdef7d4bab8bd6752998d2,InstallFree,software,,Stamford,USA,41.073034,-73.550452,2006,,$11.5M
1144,52cdef7d4bab8bd6752998fd,Centrify,network_hosting,identity and mobile device management,Sunnyvale,USA,37.390918,-122.080843,2004,160.0,$52M
1145,52cdef7d4bab8bd67529990d,Integrate,software,Marketing Software and Media Services,Scottsdale,USA,40.7481039,-74.0353787,2010,120.0,$34.8M
1150,52cdef7d4bab8bd675299918,Pioco,mobile,,Shanghai,CHN,31.222222,121.475,2006,54.0,$0
1153,52cdef7d4bab8bd67529993b,NexPlanar,semiconductor,CMP pad Producer,Hillsboro,USA,45.546481,-122.9021288,2008,,$43M
1156,52cdef7d4bab8bd675299944,ZManda,software,backup and recovery software,Sunnyvale,USA,37.3725243,-122.035963,2005,,$13M
1161,52cdef7d4bab8bd675299951,Nextiva,enterprise,Business VoIP Phone Systems,Scottsdale,USA,33.555878,-111.8963228,2005,200.0,$0
1163,52cdef7d4bab8bd675299974,Synchronica,mobile,Mobile Email Synchronization,Berlin,DEU,52.494722,13.398514,2004,,$17.6M
1164,52cdef7d4bab8bd675299974,Synchronica,mobile,Mobile Email Synchronization,Raleigh,USA,35.868807,-78.615986,2004,,$17.6M
1165,52cdef7d4bab8bd675299974,Synchronica,mobile,Mobile Email Synchronization,Campbell,USA,37.275604,-121.952034,2004,,$17.6M
1167,52cdef7d4bab8bd675299979,Palo Alto Networks,security,Hardware Firewalls,Santa Clara,USA,37.410439,-122.016125,2005,,$329M
1168,52cdef7d4bab8bd67529997b,Envysion,software,web-based video management software,Louisville,USA,39.97764,-105.13114,2006,,$13.3M
1169,52cdef7d4bab8bd675299991,BitWave,mobile,,Lowell,USA,42.616152,-71.325869,2004,,$27.8M
1170,52cdef7d4bab8bd6752999c2,KoolSpan,security,Chip-based security,Bethesda,USA,38.987594,-77.0974791,2003,,$37.7M
1174,52cdef7d4bab8bd675299a10,Lyft,software,Your friend with a car™,San Francisco,USA,37.7899027,-122.4007846,2007,180.0,$82.5M
1176,52cdef7d4bab8bd675299a27,Demandbase,analytics,,San Francisco,USA,37.796843,-122.400346,2006,80.0,$33M
1177,52cdef7d4bab8bd675299a37,Jumptap,mobile,Mobile advertising solutions,Boston,USA,42.368633,-71.075305,2005,,$122M
1178,52cdef7d4bab8bd675299a37,Jumptap,mobile,Mobile advertising solutions,New York City,USA,40.751478,-73.980305,2005,,$122M
1181,52cdef7d4bab8bd675299a46,Popego,advertising,,San Francisco,USA,37.778687,-122.421242,2007,120.0,$0
1182,52cdef7d4bab8bd675299a57,Spotmau Corporation,software,,Humble,USA,29.985528,-95.3082988,2006,70.0,$0
1183,52cdef7d4bab8bd675299a5b,Thomson Reuters,public_relations,Intelligent Information Provider,New York,USA,40.7564318,-73.9871847,2008,50000.0,$0
1185,52cdef7d4bab8bd675299a88,Yammer,enterprise,Enterprise Social Network,San Francisco,USA,37.776246,-122.4179223,2008,400.0,$142M
1187,52cdef7d4bab8bd675299a8b,GoPlanit,web,online travel planning,san francisco,USA,37.791576,-122.399363,2007,,$500k
1188,52cdef7d4bab8bd675299a97,PostPath,web,email and collaboration servers,Mountain View,USA,37.390501,-122.081151,2003,,$24.3M
1189,52cdef7d4bab8bd675299ac6,TRUECar,transportation,Car Buying Marketplace,Santa Monica,USA,34.0152942,-118.4965479,2005,303.0,$352M
1191,52cdef7d4bab8bd675299ac6,TRUECar,transportation,Car Buying Marketplace,Santa Monica,USA,34.012985,-118.49567,2005,303.0,$352M
1192,52cdef7d4bab8bd675299ac6,TRUECar,transportation,Car Buying Marketplace,Austin,USA,30.3096936,-97.9390133,2005,303.0,$352M
1193,52cdef7d4bab8bd675299ac6,TRUECar,transportation,Car Buying Marketplace,Santa Barbara,USA,34.4405218,-119.7445783,2005,303.0,$352M
1194,52cdef7d4bab8bd675299b0c,Intela,advertising,Global Performance Marketing,Boulder,USA,40.058448,-105.278785,2006,70.0,$13.3M
1195,52cdef7d4bab8bd675299b0c,Intela,advertising,Global Performance Marketing,London,GBR,51.5139758,-0.1230127,2006,70.0,$13.3M
1197,52cdef7d4bab8bd675299b0f,Picateers,web,,San Mateo,USA,37.5574,-122.301914,2005,,$12.1M
1198,52cdef7d4bab8bd675299b10,SailPoint Technologies,enterprise,identity governance software,Austin,USA,30.355703,-97.797117,2005,,$25.8M
1200,52cdef7d4bab8bd675299b49,Big Stage,web,3d imaging,South Pasadena,USA,34.111471,-118.174878,2008,,$10.6M
1202,52cdef7d4bab8bd675299b5e,Mimosa Systems,software,Data Archiving Software,Santa Clara,USA,37.379684,-121.97514,2003,,$53.8M
1203,52cdef7d4bab8bd675299b5e,Mimosa Systems,software,Data Archiving Software,Ottawa,CAN,45.343475,-75.7186146,2003,,$53.8M
1204,52cdef7d4bab8bd675299b5e,Mimosa Systems,software,Data Archiving Software,Reading,GBR,51.461674,-0.93391,2003,,$53.8M
1205,52cdef7d4bab8bd675299b5e,Mimosa Systems,software,Data Archiving Software,Boulogne Billancourt,FRA,48.8386994,2.2376715,2003,,$53.8M
1206,52cdef7d4bab8bd675299b5e,Mimosa Systems,software,Data Archiving Software,Aschheim-Dornach,DEU,48.1520662,11.6823188,2003,,$53.8M
1211,52cdef7d4bab8bd675299b84,Lolapps,web,,San Francisco,USA,37.7870923,-122.3999719,2008,65.0,$4M
1212,52cdef7d4bab8bd675299b86,Stylesight,fashion,SaaS Trend Forecasting Platform,NEW YORK,USA,40.730763,-74.000827,2004,200.0,$26M
1213,52cdef7d4bab8bd675299b9a,Connectbeam,software,software applications,Mountain View,USA,37.401818,-122.050565,2005,,$3.5M
1214,52cdef7d4bab8bd675299bc0,Taglocity,enterprise,,Vancouver,CAN,49.2812342,-123.1043395,2007,,$1.2M
1215,52cdef7d4bab8bd675299bc4,Helpstream,web,,Mountain View,USA,37.418262,-122.087859,2004,,$8.6M
1217,52cdef7d4bab8bd675299bd8,Chegg,education,Online textbook rental,Santa Clara,USA,37.352313,-121.967982,2005,,$252M
1218,52cdef7d4bab8bd675299bd9,Xactly Corp,analytics,Incent Right.,San Jose,USA,37.334738,-121.891516,2005,,$73.9M
1219,52cdef7d4bab8bd675299bd9,Xactly Corp,analytics,Incent Right.,Boston,USA,42.355077,-71.056928,2005,,$73.9M
1222,52cdef7d4bab8bd675299bdd,Hangout Industries,games_video,,Boston,USA,42.352835,-71.0609612,2005,,$12M
1224,52cdef7d4bab8bd675299c2b,FetchBack,advertising,,Tempe,USA,33.426418,-111.9396,2007,100.0,$1M
1225,52cdef7d4bab8bd675299c3f,ConSentry Networks,network_hosting,Intelligent User & App Control Switch,Milpitas,USA,37.407311,-121.898605,2003,80.0,$46.4M
1227,52cdef7d4bab8bd675299c75,inTALK,mobile,,Tempe,USA,33.407392,-111.892085,2007,100.0,$0
1229,52cdef7d4bab8bd675299cbf,Brightstorm,games_video,Video Tutorial Site,San Francisco,USA,37.804619,-122.371203,2008,,$6M
1230,52cdef7d4bab8bd675299cc0,Trizeon,advertising,,Hyderabad,IND,17.498081,78.389911,2004,60.0,$0
1231,52cdef7d4bab8bd675299cc1,Jobmixi,search,,Hyderabad,IND,17.498081,78.389911,2004,55.0,$0
1232,52cdef7d4bab8bd675299d16,RiseSmart,enterprise,Enterprise Career Management,San Jose,USA,37.383526,-122.012808,2007,100.0,$12.6M
1233,52cdef7d4bab8bd675299d19,Vertica Systems,software,data management solutions,Billerica,USA,42.543932,-71.278698,2005,,$30.5M
1234,52cdef7d4bab8bd675299d28,Exaprotect,security,Enterprise Security Management,Mountain View,USA,37.419347,-122.089639,2004,,$7.66M
1235,52cdef7d4bab8bd675299d49,Facebookster,public_relations,,Fremont,USA,37.506206,-121.949247,2003,124.0,$0
1236,52cdef7d4bab8bd675299d4b,CityVoter,web,,Cambridge,USA,42.358184,-71.106389,2005,,$4.18M
1239,52cdef7d4bab8bd675299d5d,Groupon,web,Local Daily Deals,Chicago,USA,41.8965162,-87.643622,2008,10000.0,$1.15B
1243,52cdef7d4bab8bd675299d68,Heatwave Interactive,games_video,,Austin,USA,30.297775,-97.762921,2008,,$12.6M
1244,52cdef7d4bab8bd675299d6f,OneSpot,advertising,Content Advertising,Austin,USA,30.2686147,-97.7404872,2005,,$11.7M
1245,52cdef7d4bab8bd675299d74,CoreTrace,security,Computer & Network Security,Austin,USA,30.392018,-97.848345,2007,,$16.9M
1246,52cdef7d4bab8bd675299d7c,PicApp,web,,San Francisco,USA,37.79402,-122.4031242,2008,,$3.2M
1247,52cdef7d4bab8bd675299d9f,metaio,software,,Munich,DEU,48.160718,11.553725,2003,65.0,$0
1248,52cdef7d4bab8bd675299d9f,metaio,software,,San Francisco,USA,37.590339,-122.341715,2003,65.0,$0
1249,52cdef7d4bab8bd675299da3,DreamBox Learning,education,Education Software,Bellevue,USA,47.6130554,-122.1967108,2004,,$35.6M
1250,52cdef7d4bab8bd675299dae,Navara,software,,Maarssen,NLD,52.126616,5.038078,2012,80.0,$0
1252,52cdef7d4bab8bd675299daf,Bloglovin,web,RSS Reader,New York,USA,40.740308,-74.007199,2008,,$1M
1253,52cdef7d4bab8bd675299dbd,Finsphere,mobile,Mobile Identity Protection,Bellevue,USA,47.614761,-122.198904,2007,,$30.7M
